Part,Venue ID,Venue,Venue Latitude,Venue Longitude,Venue Category
2,4b6664c0f964a52012202be3,Arakogawa-Kōen Station (AN08) (荒子川公園駅 (AN08)),35.104942740178565,136.86108752184919,"[{'id': '4bf58dd8d48988d129951735', 'name': 'Train Station', 'pluralName': 'Train Stations', 'shortName': 'Train Station', 'icon': {'prefix': 'https://ss3.4sqi.net/img/categories_v2/travel/trainstation_', 'suffix': '.png'}, 'primary': True}]"
2,56ada4e0498e4c7dded6bd77,荒子川公園駅 2番線ホーム(名古屋方面),35.104317,136.861178,"[{'id': '4f4531504b9074f6e4fb0102', 'name': 'Platform', 'pluralName': 'Platforms', 'shortName': 'Platform', 'icon': {'prefix': 'https://ss3.4sqi.net/img/categories_v2/travel/trainstation_', 'suffix': '.png'}, 'primary': True}]"
2,56add3cd498e71625be8702e,荒子川公園駅 1番線ホーム(金城ふ頭方面),35.104344498879705,136.86173823191587,"[{'id': '4f4531504b9074f6e4fb0102', 'name': 'Platform', 'pluralName': 'Platforms', 'shortName': 'Platform', 'icon': {'prefix': 'https://ss3.4sqi.net/img/categories_v2/travel/trainstation_', 'suffix': '.png'}, 'primary': True}]"
2,55efe03f498ef8334bc7c702,港福祉会館東交差点,35.10506759519782,136.858491897583,"[{'id': '52f2ab2ebcbc57f1066b8b4c', 'name': 'Intersection', 'pluralName': 'Intersections', 'shortName': 'Intersection', 'icon': {'prefix': 'https://ss3.4sqi.net/img/categories_v2/travel/default_', 'suffix': '.png'}, 'primary': True}]"
2,55efdfa3498eb5a8555f4e5f,善進橋西 交差点,35.104174,136.856736,"[{'id': '52f2ab2ebcbc57f1066b8b4c', 'name': 'Intersection', 'pluralName': 'Intersections', 'shortName': 'Intersection', 'icon': {'prefix': 'https://ss3.4sqi.net/img/categories_v2/travel/default_', 'suffix': '.png'}, 'primary': True}]"
3,4d9ff9a8a77d816e0c130f09,荒子川公園駅バス停,35.106066001101965,136.86151072382927,"[{'id': '4bf58dd8d48988d1fe931735', 'name': 'Bus Station', 'pluralName': 'Bus Stations', 'shortName': 'Bus Station', 'icon': {'prefix': 'https://ss3.4sqi.net/img/categories_v2/travel/busstation_', 'suffix': '.png'}, 'primary': True}]"
3,4f014f2e5c5c51dd2fbb704f,市バス 荒子川公園駅,35.10585800352891,136.86167196593675,"[{'id': '4bf58dd8d48988d1fe931735', 'name': 'Bus Station', 'pluralName': 'Bus Stations', 'shortName': 'Bus Station', 'icon': {'prefix': 'https://ss3.4sqi.net/img/categories_v2/travel/busstation_', 'suffix': '.png'}, 'primary': True}]"
3,55efe070498e2e2cdd6a6eb7,寛政町4交差点,35.10619985239238,136.86213970184326,"[{'id': '52f2ab2ebcbc57f1066b8b4c', 'name': 'Intersection', 'pluralName': 'Intersections', 'shortName': 'Intersection', 'icon': {'prefix': 'https://ss3.4sqi.net/img/categories_v2/travel/default_', 'suffix': '.png'}, 'primary': True}]"
4,548f8cde498ecbfa11817c38,入場東交差点,35.11375522368759,136.85877127976232,"[{'id': '52f2ab2ebcbc57f1066b8b4c', 'name': 'Intersection', 'pluralName': 'Intersections', 'shortName': 'Intersection', 'icon': {'prefix': 'https://ss3.4sqi.net/img/categories_v2/travel/default_', 'suffix': '.png'}, 'primary': True}]"
4,53b7d001498e7116373cedfa,土古（名古屋市営バス）,35.11373519897461,136.8610076904297,"[{'id': '4bf58dd8d48988d1fe931735', 'name': 'Bus Station', 'pluralName': 'Bus Stations', 'shortName': 'Bus Station', 'icon': {'prefix': 'https://ss3.4sqi.net/img/categories_v2/travel/busstation_', 'suffix': '.png'}, 'primary': True}]"
5,4cc13b265684a35d8586b70d,Nagoya-keibajō-mae Station (AN07) (名古屋競馬場前駅 (AN07)),35.11445989353835,136.86260945008294,"[{'id': '4bf58dd8d48988d129951735', 'name': 'Train Station', 'pluralName': 'Train Stations', 'shortName': 'Train Station', 'icon': {'prefix': 'https://ss3.4sqi.net/img/categories_v2/travel/trainstation_', 'suffix': '.png'}, 'primary': True}]"
7,4c3ae6374565e21e06cd556a,Nakajima Station (AN06) (中島駅 (AN06)),35.12479736064198,136.86118273330948,"[{'id': '4bf58dd8d48988d129951735', 'name': 'Train Station', 'pluralName': 'Train Stations', 'shortName': 'Train Station', 'icon': {'prefix': 'https://ss3.4sqi.net/img/categories_v2/travel/trainstation_', 'suffix': '.png'}, 'primary': True}]"
7,540b05a5498eb031057e7176,中島駅南交差点,35.12450886216014,136.86157256713113,"[{'id': '52f2ab2ebcbc57f1066b8b4c', 'name': 'Intersection', 'pluralName': 'Intersections', 'shortName': 'Intersection', 'icon': {'prefix': 'https://ss3.4sqi.net/img/categories_v2/travel/default_', 'suffix': '.png'}, 'primary': True}]"
7,4dbf99df4df0f8fd6b8a578c,市バス 中島駅,35.124393826557984,136.86071312158288,"[{'id': '4bf58dd8d48988d1fe931735', 'name': 'Bus Station', 'pluralName': 'Bus Stations', 'shortName': 'Bus Station', 'icon': {'prefix': 'https://ss3.4sqi.net/img/categories_v2/travel/busstation_', 'suffix': '.png'}, 'primary': True}]"
7,4ca6aef8b0b8236a162da2e6,Nagoya-Kamotsu-Term. (名古屋貨物ターミナル駅),35.125058430470595,136.86152050116823,"[{'id': '4bf58dd8d48988d129951735', 'name': 'Train Station', 'pluralName': 'Train Stations', 'shortName': 'Train Station', 'icon': {'prefix': 'https://ss3.4sqi.net/img/categories_v2/travel/trainstation_', 'suffix': '.png'}, 'primary': True}]"
8,4c3ff32cd7fad13acb5905da,Minami-Arako Station (AN05) (南荒子駅 (AN05)),35.13184136054245,136.86141163614656,"[{'id': '4bf58dd8d48988d129951735', 'name': 'Train Station', 'pluralName': 'Train Stations', 'shortName': 'Train Station', 'icon': {'prefix': 'https://ss3.4sqi.net/img/categories_v2/travel/trainstation_', 'suffix': '.png'}, 'primary': True}]"
8,57873faacd10f8959106f850,名古屋市交通局 的場町 バス停,35.13141,136.85895,"[{'id': '52f2ab2ebcbc57f1066b8b4f', 'name': 'Bus Stop', 'pluralName': 'Bus Stops', 'shortName': 'Bus Stop', 'icon': {'prefix': 'https://ss3.4sqi.net/img/categories_v2/travel/busstation_', 'suffix': '.png'}, 'primary': True}]"
8,57e09311498ec3653ad98106,名古屋市交通局 南荒子駅 バス停,35.131466,136.86098,"[{'id': '52f2ab2ebcbc57f1066b8b4f', 'name': 'Bus Stop', 'pluralName': 'Bus Stops', 'shortName': 'Bus Stop', 'icon': {'prefix': 'https://ss3.4sqi.net/img/categories_v2/travel/busstation_', 'suffix': '.png'}, 'primary': True}]"
8,542e9ba5498e6631c0d7876e,荒中町 交差点,35.131437468969686,136.85750211749664,"[{'id': '52f2ab2ebcbc57f1066b8b4c', 'name': 'Intersection', 'pluralName': 'Intersections', 'shortName': 'Intersection', 'icon': {'prefix': 'https://ss3.4sqi.net/img/categories_v2/travel/default_', 'suffix': '.png'}, 'primary': True}]"
10,4e12e320483bee47ff3e35d8,荒子観音 (名古屋市営バス),35.13693155303343,136.86035871505737,"[{'id': '4bf58dd8d48988d1fe931735', 'name': 'Bus Station', 'pluralName': 'Bus Stations', 'shortName': 'Bus Station', 'icon': {'prefix': 'https://ss3.4sqi.net/img/categories_v2/travel/busstation_', 'suffix': '.png'}, 'primary': True}]"
10,4da024fa784f37046be792af,荒子一丁目バス停,35.14045416389593,136.8593555688858,"[{'id': '52f2ab2ebcbc57f1066b8b4f', 'name': 'Bus Stop', 'pluralName': 'Bus Stops', 'shortName': 'Bus Stop', 'icon': {'prefix': 'https://ss3.4sqi.net/img/categories_v2/travel/busstation_', 'suffix': '.png'}, 'primary': True}]"
10,4b7e5290f964a52078e92fe3,Arako Station (AN04) (荒子駅),35.13976026260623,136.86162206156564,"[{'id': '4bf58dd8d48988d129951735', 'name': 'Train Station', 'pluralName': 'Train Stations', 'shortName': 'Train Station', 'icon': {'prefix': 'https://ss3.4sqi.net/img/categories_v2/travel/trainstation_', 'suffix': '.png'}, 'primary': True}]"
10,54142e28498e196e2fc11009,荒子一丁目交差点,35.140519,136.86031,"[{'id': '52f2ab2ebcbc57f1066b8b4c', 'name': 'Intersection', 'pluralName': 'Intersections', 'shortName': 'Intersection', 'icon': {'prefix': 'https://ss3.4sqi.net/img/categories_v2/travel/default_', 'suffix': '.png'}, 'primary': True}]"
10,4d92e9ea90202d432b13cf7e,名古屋市交通局 荒子駅 バス停,35.1404717107665,136.8610829114914,"[{'id': '52f2ab2ebcbc57f1066b8b4f', 'name': 'Bus Stop', 'pluralName': 'Bus Stops', 'shortName': 'Bus Stop', 'icon': {'prefix': 'https://ss3.4sqi.net/img/categories_v2/travel/busstation_', 'suffix': '.png'}, 'primary': True}]"
11,5bf8e1819ef8ef002ca2624c,上高畑一丁目バス停(南行),35.1429,136.86055,"[{'id': '52f2ab2ebcbc57f1066b8b4f', 'name': 'Bus Stop', 'pluralName': 'Bus Stops', 'shortName': 'Bus Stop', 'icon': {'prefix': 'https://ss3.4sqi.net/img/categories_v2/travel/busstation_', 'suffix': '.png'}, 'primary': True}]"
12,541c408a498e7ac703e83448,万町東交差点,35.14888268143279,136.86097144519175,"[{'id': '52f2ab2ebcbc57f1066b8b4c', 'name': 'Intersection', 'pluralName': 'Intersections', 'shortName': 'Intersection', 'icon': {'prefix': 'https://ss3.4sqi.net/img/categories_v2/travel/default_', 'suffix': '.png'}, 'primary': True}]"
12,4d774ff07484b60cb5513ad9,市バス 小本駅,35.14903193916117,136.86113387346268,"[{'id': '52f2ab2ebcbc57f1066b8b4f', 'name': 'Bus Stop', 'pluralName': 'Bus Stops', 'shortName': 'Bus Stop', 'icon': {'prefix': 'https://ss3.4sqi.net/img/categories_v2/travel/busstation_', 'suffix': '.png'}, 'primary': True}]"
12,5c9ac3d05c6838002c1d9cab,タイムズレンタカー八田駅南店,35.148327,136.85732,"[{'id': '4bf58dd8d48988d1ef941735', 'name': 'Rental Car Location', 'pluralName': 'Rental Car Locations', 'shortName': 'Rental Car', 'icon': {'prefix': 'https://ss3.4sqi.net/img/categories_v2/shops/airport_rentalcar_', 'suffix': '.png'}, 'primary': True}]"
12,4bb683d52f70c9b610908530,Komoto Station (AN03) (小本駅),35.14928414847946,136.861190199852,"[{'id': '4bf58dd8d48988d129951735', 'name': 'Train Station', 'pluralName': 'Train Stations', 'shortName': 'Train Station', 'icon': {'prefix': 'https://ss3.4sqi.net/img/categories_v2/travel/trainstation_', 'suffix': '.png'}, 'primary': True}]"
13,58d9b74a83622d5dad62bb81,烏森駅西 交差点,35.152866,136.862627,"[{'id': '52f2ab2ebcbc57f1066b8b4c', 'name': 'Intersection', 'pluralName': 'Intersections', 'shortName': 'Intersection', 'icon': {'prefix': 'https://ss3.4sqi.net/img/categories_v2/travel/default_', 'suffix': '.png'}, 'primary': True}]"
14,4cdf3886c4f6a35d331ccf6c,名古屋高速 烏森出入口 (512/502),35.157687810382434,136.85941424133048,"[{'id': '52f2ab2ebcbc57f1066b8b4d', 'name': 'Toll Booth', 'pluralName': 'Toll Booths', 'shortName': 'Toll Booth', 'icon': {'prefix': 'https://ss3.4sqi.net/img/categories_v2/travel/default_', 'suffix': '.png'}, 'primary': True}]"
14,5b0a690a57a537002c445570,松蔭高校前 バス停,35.157402,136.86104,"[{'id': '52f2ab2ebcbc57f1066b8b4f', 'name': 'Bus Stop', 'pluralName': 'Bus Stops', 'shortName': 'Bus Stop', 'icon': {'prefix': 'https://ss3.4sqi.net/img/categories_v2/travel/busstation_', 'suffix': '.png'}, 'primary': True}]"
14,569b54cc498eb50a96c83093,畑江通7交差点,35.157601,136.860385,"[{'id': '52f2ab2ebcbc57f1066b8b4c', 'name': 'Intersection', 'pluralName': 'Intersections', 'shortName': 'Intersection', 'icon': {'prefix': 'https://ss3.4sqi.net/img/categories_v2/travel/default_', 'suffix': '.png'}, 'primary': True}]"
14,552f63c3498e151e37406869,市バス 畑江通八丁目,35.15768051147461,136.85752868652344,"[{'id': '52f2ab2ebcbc57f1066b8b4f', 'name': 'Bus Stop', 'pluralName': 'Bus Stops', 'shortName': 'Bus Stop', 'icon': {'prefix': 'https://ss3.4sqi.net/img/categories_v2/travel/busstation_', 'suffix': '.png'}, 'primary': True}]"
15,52c64f98498eaef0d6744c59,市バス 千成通四丁目,35.162671,136.861008,"[{'id': '4bf58dd8d48988d1fe931735', 'name': 'Bus Station', 'pluralName': 'Bus Stations', 'shortName': 'Bus Station', 'icon': {'prefix': 'https://ss3.4sqi.net/img/categories_v2/travel/busstation_', 'suffix': '.png'}, 'primary': True}]"
16,53f80b02498ef2ad1a5fad81,楠橋交差点,35.168099111849266,136.86020467011411,"[{'id': '52f2ab2ebcbc57f1066b8b4c', 'name': 'Intersection', 'pluralName': 'Intersections', 'shortName': 'Intersection', 'icon': {'prefix': 'https://ss3.4sqi.net/img/categories_v2/travel/default_', 'suffix': '.png'}, 'primary': True}]"
16,546af14e498e33295ba242a1,楠橋バス停,35.168137180783745,136.86116077416426,"[{'id': '52f2ab2ebcbc57f1066b8b4f', 'name': 'Bus Stop', 'pluralName': 'Bus Stops', 'shortName': 'Bus Stop', 'icon': {'prefix': 'https://ss3.4sqi.net/img/categories_v2/travel/busstation_', 'suffix': '.png'}, 'primary': True}]"
18,5b96749a12c8f0002c59ebde,中村日赤駅 1番ホーム,35.172577,136.86186,"[{'id': '4f4531504b9074f6e4fb0102', 'name': 'Platform', 'pluralName': 'Platforms', 'shortName': 'Platform', 'icon': {'prefix': 'https://ss3.4sqi.net/img/categories_v2/travel/trainstation_', 'suffix': '.png'}, 'primary': True}]"
18,4b56457ef964a520900828e3,H05 (中村日赤駅),35.172857844600166,136.8622155389129,"[{'id': '4bf58dd8d48988d1fd931735', 'name': 'Metro Station', 'pluralName': 'Metro Stations', 'shortName': 'Metro', 'icon': {'prefix': 'https://ss3.4sqi.net/img/categories_v2/travel/subway_', 'suffix': '.png'}, 'primary': True}]"
18,542fcc70498ef8a71733fa2a,中村日赤駅交差点,35.172427596671824,136.86171456548476,"[{'id': '52f2ab2ebcbc57f1066b8b4c', 'name': 'Intersection', 'pluralName': 'Intersections', 'shortName': 'Intersection', 'icon': {'prefix': 'https://ss3.4sqi.net/img/categories_v2/travel/default_', 'suffix': '.png'}, 'primary': True}]"
18,5aa47af9a8eb601460054027,鳥居通3 交差点,35.173154,136.86252,"[{'id': '52f2ab2ebcbc57f1066b8b4c', 'name': 'Intersection', 'pluralName': 'Intersections', 'shortName': 'Intersection', 'icon': {'prefix': 'https://ss3.4sqi.net/img/categories_v2/travel/default_', 'suffix': '.png'}, 'primary': True}]"
19,5494fb22498e2fe76c038f3e,本陣通5 交差点,35.17770784513794,136.86083418213065,"[{'id': '52f2ab2ebcbc57f1066b8b4c', 'name': 'Intersection', 'pluralName': 'Intersections', 'shortName': 'Intersection', 'icon': {'prefix': 'https://ss3.4sqi.net/img/categories_v2/travel/default_', 'suffix': '.png'}, 'primary': True}]"
19,5b2708379d7468002ce1f7ee,豊臣小学校バス停,35.177586,136.86162,"[{'id': '52f2ab2ebcbc57f1066b8b4f', 'name': 'Bus Stop', 'pluralName': 'Bus Stops', 'shortName': 'Bus Stop', 'icon': {'prefix': 'https://ss3.4sqi.net/img/categories_v2/travel/busstation_', 'suffix': '.png'}, 'primary': True}]"
22,4b6bc885f964a52062182ce3,Futatsuiri Station (二ツ杁駅),35.19477367375665,136.85947334090625,"[{'id': '4bf58dd8d48988d129951735', 'name': 'Train Station', 'pluralName': 'Train Stations', 'shortName': 'Train Station', 'icon': {'prefix': 'https://ss3.4sqi.net/img/categories_v2/travel/trainstation_', 'suffix': '.png'}, 'primary': True}]"
23,55fcd947498e3854df0557bd,枇杷島駅 1-2番線ホーム,35.19920086380913,136.86144476895439,"[{'id': '4f4531504b9074f6e4fb0102', 'name': 'Platform', 'pluralName': 'Platforms', 'shortName': 'Platform', 'icon': {'prefix': 'https://ss3.4sqi.net/img/categories_v2/travel/trainstation_', 'suffix': '.png'}, 'primary': True}]"
23,55fcd5cd498e48f495005118,枇杷島駅 3-4番線ホーム,35.19969276291973,136.8610668182373,"[{'id': '4f4531504b9074f6e4fb0102', 'name': 'Platform', 'pluralName': 'Platforms', 'shortName': 'Platform', 'icon': {'prefix': 'https://ss3.4sqi.net/img/categories_v2/travel/trainstation_', 'suffix': '.png'}, 'primary': True}]"
23,4b56fd0df964a520f22128e3,Biwajima Station (枇杷島駅),35.19946149305583,136.86158272985608,"[{'id': '4bf58dd8d48988d129951735', 'name': 'Train Station', 'pluralName': 'Train Stations', 'shortName': 'Train Station', 'icon': {'prefix': 'https://ss3.4sqi.net/img/categories_v2/travel/trainstation_', 'suffix': '.png'}, 'primary': True}]"
24,5ba49f5ad41bb7002c5e8ee8,宮前町南交差点,35.202328,136.861331,"[{'id': '52f2ab2ebcbc57f1066b8b4c', 'name': 'Intersection', 'pluralName': 'Intersections', 'shortName': 'Intersection', 'icon': {'prefix': 'https://ss3.4sqi.net/img/categories_v2/travel/default_', 'suffix': '.png'}, 'primary': True}]"
24,5ba49f296336be0039534ac1,宮前町交差点,35.203544,136.860119,"[{'id': '52f2ab2ebcbc57f1066b8b4c', 'name': 'Intersection', 'pluralName': 'Intersections', 'shortName': 'Intersection', 'icon': {'prefix': 'https://ss3.4sqi.net/img/categories_v2/travel/default_', 'suffix': '.png'}, 'primary': True}]"
24,5ba4a12a9ba3e5002cdad732,西枇杷島警察署前交差点,35.200968,136.862515,"[{'id': '52f2ab2ebcbc57f1066b8b4c', 'name': 'Intersection', 'pluralName': 'Intersections', 'shortName': 'Intersection', 'icon': {'prefix': 'https://ss3.4sqi.net/img/categories_v2/travel/default_', 'suffix': '.png'}, 'primary': True}]"
25,52179df611d2263621ffe9b2,新川大橋北交差点,35.205776865517,136.85778379440308,"[{'id': '52f2ab2ebcbc57f1066b8b4c', 'name': 'Intersection', 'pluralName': 'Intersections', 'shortName': 'Intersection', 'icon': {'prefix': 'https://ss3.4sqi.net/img/categories_v2/travel/default_', 'suffix': '.png'}, 'primary': True}]"
28,4e26192be4cd60a2c622b3eb,名古屋高速 清須本線料金所,35.21771500742531,136.8573128022461,"[{'id': '52f2ab2ebcbc57f1066b8b4d', 'name': 'Toll Booth', 'pluralName': 'Toll Booths', 'shortName': 'Toll Booth', 'icon': {'prefix': 'https://ss3.4sqi.net/img/categories_v2/travel/default_', 'suffix': '.png'}, 'primary': True}]"
28,579f2c3e498eb6b315228f5a,中沼町交差点,35.2221366,136.8609913,"[{'id': '52f2ab2ebcbc57f1066b8b4c', 'name': 'Intersection', 'pluralName': 'Intersections', 'shortName': 'Intersection', 'icon': {'prefix': 'https://ss3.4sqi.net/img/categories_v2/travel/default_', 'suffix': '.png'}, 'primary': True}]"
29,57a8537c498efae5cb3dc0bb,浮野町南交差点,35.2254418,136.8607753,"[{'id': '52f2ab2ebcbc57f1066b8b4c', 'name': 'Intersection', 'pluralName': 'Intersections', 'shortName': 'Intersection', 'icon': {'prefix': 'https://ss3.4sqi.net/img/categories_v2/travel/default_', 'suffix': '.png'}, 'primary': True}]"
29,56a372b1498e2c2c7478a937,清洲JCT 第一料金所(上社方面),35.222014500622,136.85722037434,"[{'id': '52f2ab2ebcbc57f1066b8b4e', 'name': 'Toll Plaza', 'pluralName': 'Toll Plazas', 'shortName': 'Toll Plaza', 'icon': {'prefix': 'https://ss3.4sqi.net/img/categories_v2/travel/default_', 'suffix': '.png'}, 'primary': True}]"
30,57a430c6498e96326923fe52,野南北交差点,35.22973456994374,136.86065560951673,"[{'id': '52f2ab2ebcbc57f1066b8b4c', 'name': 'Intersection', 'pluralName': 'Intersections', 'shortName': 'Intersection', 'icon': {'prefix': 'https://ss3.4sqi.net/img/categories_v2/travel/default_', 'suffix': '.png'}, 'primary': True}]"
30,57980383498ea980f72c39fa,浮野町交差点,35.2282098,136.860616,"[{'id': '52f2ab2ebcbc57f1066b8b4c', 'name': 'Intersection', 'pluralName': 'Intersections', 'shortName': 'Intersection', 'icon': {'prefix': 'https://ss3.4sqi.net/img/categories_v2/travel/default_', 'suffix': '.png'}, 'primary': True}]"
31,56b70819498e1798d56277f8,十一屋一丁目交差点,35.09653,136.863092,"[{'id': '52f2ab2ebcbc57f1066b8b4c', 'name': 'Intersection', 'pluralName': 'Intersections', 'shortName': 'Intersection', 'icon': {'prefix': 'https://ss3.4sqi.net/img/categories_v2/travel/default_', 'suffix': '.png'}, 'primary': True}]"
32,55efe08f498e5142c1eb2299,品川町交差点,35.10443,136.863137,"[{'id': '52f2ab2ebcbc57f1066b8b4c', 'name': 'Intersection', 'pluralName': 'Intersections', 'shortName': 'Intersection', 'icon': {'prefix': 'https://ss3.4sqi.net/img/categories_v2/travel/default_', 'suffix': '.png'}, 'primary': True}]"
32,4f0a87cee4b09d21f8b246bd,ジャパンレンタカー 港店,35.10114815023183,136.86663020366578,"[{'id': '4bf58dd8d48988d1ef941735', 'name': 'Rental Car Location', 'pluralName': 'Rental Car Locations', 'shortName': 'Rental Car', 'icon': {'prefix': 'https://ss3.4sqi.net/img/categories_v2/shops/airport_rentalcar_', 'suffix': '.png'}, 'primary': True}]"
33,578b3a01498e4033136ebd74,本宮町交差点,35.1086752831341,136.86707982636366,"[{'id': '52f2ab2ebcbc57f1066b8b4c', 'name': 'Intersection', 'pluralName': 'Intersections', 'shortName': 'Intersection', 'icon': {'prefix': 'https://ss3.4sqi.net/img/categories_v2/travel/default_', 'suffix': '.png'}, 'primary': True}]"
34,54b1e4ae498e7a32a00c0831,名古屋競馬場前駅交差点,35.113682778674054,136.86444574486532,"[{'id': '52f2ab2ebcbc57f1066b8b4c', 'name': 'Intersection', 'pluralName': 'Intersections', 'shortName': 'Intersection', 'icon': {'prefix': 'https://ss3.4sqi.net/img/categories_v2/travel/default_', 'suffix': '.png'}, 'primary': True}]"
34,5072a982e4b08bafd2d165d8,名古屋競馬場前駅 (市バス),35.11383204585392,136.86277483248287,"[{'id': '52f2ab2ebcbc57f1066b8b4f', 'name': 'Bus Stop', 'pluralName': 'Bus Stops', 'shortName': 'Bus Stop', 'icon': {'prefix': 'https://ss3.4sqi.net/img/categories_v2/travel/busstation_', 'suffix': '.png'}, 'primary': True}]"
38,4e07e76b18a8382643b7b877,市バス 上流町,35.13143895902465,136.86405211687088,"[{'id': '4d4b7105d754a06379d81259', 'name': 'Travel & Transport', 'pluralName': 'Travel & Transport', 'shortName': 'Travel', 'icon': {'prefix': 'https://ss3.4sqi.net/img/categories_v2/travel/default_', 'suffix': '.png'}, 'primary': True}]"
38,58d22875158b965da9481a35,上流町2交差点,35.131444,136.86343,"[{'id': '52f2ab2ebcbc57f1066b8b4c', 'name': 'Intersection', 'pluralName': 'Intersections', 'shortName': 'Intersection', 'icon': {'prefix': 'https://ss3.4sqi.net/img/categories_v2/travel/default_', 'suffix': '.png'}, 'primary': True}]"
40,59564744b37e2b6d595c0123,小塚町交差点,35.138374,136.86436,"[{'id': '52f2ab2ebcbc57f1066b8b4c', 'name': 'Intersection', 'pluralName': 'Intersections', 'shortName': 'Intersection', 'icon': {'prefix': 'https://ss3.4sqi.net/img/categories_v2/travel/default_', 'suffix': '.png'}, 'primary': True}]"
40,54142db8498ecd371774f57b,篠原橋通3交差点,35.140577,136.864338,"[{'id': '52f2ab2ebcbc57f1066b8b4c', 'name': 'Intersection', 'pluralName': 'Intersections', 'shortName': 'Intersection', 'icon': {'prefix': 'https://ss3.4sqi.net/img/categories_v2/travel/default_', 'suffix': '.png'}, 'primary': True}]"
40,57047099498e9a57d860b442,名古屋市交通局 篠原橋通三丁目  バス停 二番のりば,35.14048780473157,136.86539719560332,"[{'id': '52f2ab2ebcbc57f1066b8b4f', 'name': 'Bus Stop', 'pluralName': 'Bus Stops', 'shortName': 'Bus Stop', 'icon': {'prefix': 'https://ss3.4sqi.net/img/categories_v2/travel/busstation_', 'suffix': '.png'}, 'primary': True}]"
41,53686e6711d2192897da21f2,市バス 小本本町,35.145137786865234,136.86468505859375,"[{'id': '4bf58dd8d48988d1fe931735', 'name': 'Bus Station', 'pluralName': 'Bus Stations', 'shortName': 'Bus Station', 'icon': {'prefix': 'https://ss3.4sqi.net/img/categories_v2/travel/busstation_', 'suffix': '.png'}, 'primary': True}]"
41,58f967021499464d49020b4b,小本本町1西交差点,35.14558,136.86487,"[{'id': '52f2ab2ebcbc57f1066b8b4c', 'name': 'Intersection', 'pluralName': 'Intersections', 'shortName': 'Intersection', 'icon': {'prefix': 'https://ss3.4sqi.net/img/categories_v2/travel/default_', 'suffix': '.png'}, 'primary': True}]"
43,541ee86e498e3a898aea0b43,松葉町一交差点,35.152304,136.864221,"[{'id': '52f2ab2ebcbc57f1066b8b4c', 'name': 'Intersection', 'pluralName': 'Intersections', 'shortName': 'Intersection', 'icon': {'prefix': 'https://ss3.4sqi.net/img/categories_v2/travel/default_', 'suffix': '.png'}, 'primary': True}]"
43,5932017162420b0806fd337b,烏森駅 待合室,35.153007,136.863894,"[{'id': '4f4531504b9074f6e4fb0102', 'name': 'Platform', 'pluralName': 'Platforms', 'shortName': 'Platform', 'icon': {'prefix': 'https://ss3.4sqi.net/img/categories_v2/travel/trainstation_', 'suffix': '.png'}, 'primary': True}]"
43,4c3ce4217d002d7fcf11af18,Kasumori Station (E04) (烏森駅),35.15330142942888,136.86404335507333,"[{'id': '4bf58dd8d48988d129951735', 'name': 'Train Station', 'pluralName': 'Train Stations', 'shortName': 'Train Station', 'icon': {'prefix': 'https://ss3.4sqi.net/img/categories_v2/travel/trainstation_', 'suffix': '.png'}, 'primary': True}]"
43,56c39f98cd10f59730d80726,烏森駅 1番線ホーム,35.15322335677775,136.86423273596228,"[{'id': '4f4531504b9074f6e4fb0102', 'name': 'Platform', 'pluralName': 'Platforms', 'shortName': 'Platform', 'icon': {'prefix': 'https://ss3.4sqi.net/img/categories_v2/travel/trainstation_', 'suffix': '.png'}, 'primary': True}]"
43,541c4032498e7ff705108de9,松葉町3交差点,35.15062345006941,136.86384458871623,"[{'id': '52f2ab2ebcbc57f1066b8b4c', 'name': 'Intersection', 'pluralName': 'Intersections', 'shortName': 'Intersection', 'icon': {'prefix': 'https://ss3.4sqi.net/img/categories_v2/travel/default_', 'suffix': '.png'}, 'primary': True}]"
43,4d9f9cefc22f6ea8b2d523a8,近鉄烏森 バス停(名古屋市営バス),35.15324839927301,136.86427533767102,"[{'id': '4bf58dd8d48988d1fe931735', 'name': 'Bus Station', 'pluralName': 'Bus Stations', 'shortName': 'Bus Station', 'icon': {'prefix': 'https://ss3.4sqi.net/img/categories_v2/travel/busstation_', 'suffix': '.png'}, 'primary': True}]"
43,58f1ededb1ec13241223e84a,烏森駅 2番線ホーム,35.153024,136.863784,"[{'id': '4f4531504b9074f6e4fb0102', 'name': 'Platform', 'pluralName': 'Platforms', 'shortName': 'Platform', 'icon': {'prefix': 'https://ss3.4sqi.net/img/categories_v2/travel/trainstation_', 'suffix': '.png'}, 'primary': True}]"
44,54262ecf498e0b0d2511f60f,畑江通5交差点,35.15751842182822,136.86487555503845,"[{'id': '52f2ab2ebcbc57f1066b8b4c', 'name': 'Intersection', 'pluralName': 'Intersections', 'shortName': 'Intersection', 'icon': {'prefix': 'https://ss3.4sqi.net/img/categories_v2/travel/default_', 'suffix': '.png'}, 'primary': True}]"
44,552f6782498ef5666f4a2d52,城西病院 バス停,35.15807907799877,136.8649232193976,"[{'id': '52f2ab2ebcbc57f1066b8b4f', 'name': 'Bus Stop', 'pluralName': 'Bus Stops', 'shortName': 'Bus Stop', 'icon': {'prefix': 'https://ss3.4sqi.net/img/categories_v2/travel/busstation_', 'suffix': '.png'}, 'primary': True}]"
45,59d87e2d898bdc0803af8129,市バス 千成通 バス停,35.16307,136.86508,"[{'id': '52f2ab2ebcbc57f1066b8b4f', 'name': 'Bus Stop', 'pluralName': 'Bus Stops', 'shortName': 'Bus Stop', 'icon': {'prefix': 'https://ss3.4sqi.net/img/categories_v2/travel/busstation_', 'suffix': '.png'}, 'primary': True}]"
46,5badfabf73fe25002c2431db,太閤通6交差点,35.167986,136.863913,"[{'id': '52f2ab2ebcbc57f1066b8b4c', 'name': 'Intersection', 'pluralName': 'Intersections', 'shortName': 'Intersection', 'icon': {'prefix': 'https://ss3.4sqi.net/img/categories_v2/travel/default_', 'suffix': '.png'}, 'primary': True}]"
46,50bb17f8e4b05d0a8ed9d7bd,中村保健センター南  バス停,35.16809844970703,136.8637237548828,"[{'id': '4bf58dd8d48988d1fe931735', 'name': 'Bus Station', 'pluralName': 'Bus Stations', 'shortName': 'Bus Station', 'icon': {'prefix': 'https://ss3.4sqi.net/img/categories_v2/travel/busstation_', 'suffix': '.png'}, 'primary': True}]"
46,4f460ffde4b0f737ed544c0c,中村保健センター南バス停,35.16813659667969,136.8628387451172,"[{'id': '4bf58dd8d48988d1fe931735', 'name': 'Bus Station', 'pluralName': 'Bus Stations', 'shortName': 'Bus Station', 'icon': {'prefix': 'https://ss3.4sqi.net/img/categories_v2/travel/busstation_', 'suffix': '.png'}, 'primary': True}]"
46,51b253b6498eae03bc52ce55,大門交差点,35.16789467589589,136.86611877931523,"[{'id': '52f2ab2ebcbc57f1066b8b4c', 'name': 'Intersection', 'pluralName': 'Intersections', 'shortName': 'Intersection', 'icon': {'prefix': 'https://ss3.4sqi.net/img/categories_v2/travel/default_', 'suffix': '.png'}, 'primary': True}]"
46,4f828f22e4b0c7b8571acf66,太閤通7 交差点,35.1680784,136.8624468,"[{'id': '52f2ab2ebcbc57f1066b8b4c', 'name': 'Intersection', 'pluralName': 'Intersections', 'shortName': 'Intersection', 'icon': {'prefix': 'https://ss3.4sqi.net/img/categories_v2/travel/default_', 'suffix': '.png'}, 'primary': True}]"
47,52d64618498e25a6ddc91c46,大門通（名古屋市営バス）,35.16795213574195,136.8667368307645,"[{'id': '52f2ab2ebcbc57f1066b8b4f', 'name': 'Bus Stop', 'pluralName': 'Bus Stops', 'shortName': 'Bus Stop', 'icon': {'prefix': 'https://ss3.4sqi.net/img/categories_v2/travel/busstation_', 'suffix': '.png'}, 'primary': True}]"
48,4e83c440754aef5c1dc2e063,本陣バスターミナル,35.17674968381645,136.8663749149899,"[{'id': '4bf58dd8d48988d1fe931735', 'name': 'Bus Station', 'pluralName': 'Bus Stations', 'shortName': 'Bus Station', 'icon': {'prefix': 'https://ss3.4sqi.net/img/categories_v2/travel/busstation_', 'suffix': '.png'}, 'primary': True}]"
48,5b96742a0d173f002c8675d6,本陣駅 1番ホーム,35.1767784849208,136.8664305031023,"[{'id': '4f4531504b9074f6e4fb0102', 'name': 'Platform', 'pluralName': 'Platforms', 'shortName': 'Platform', 'icon': {'prefix': 'https://ss3.4sqi.net/img/categories_v2/travel/trainstation_', 'suffix': '.png'}, 'primary': True}]"
49,5401766c498eae21803b6f32,本陣通4交差点,35.177633,136.863639,"[{'id': '52f2ab2ebcbc57f1066b8b4c', 'name': 'Intersection', 'pluralName': 'Intersections', 'shortName': 'Intersection', 'icon': {'prefix': 'https://ss3.4sqi.net/img/categories_v2/travel/default_', 'suffix': '.png'}, 'primary': True}]"
49,4fab1f1ae4b07960eafd9a94,本陣通3西 交差点,35.177164249199905,136.86638653403995,"[{'id': '52f2ab2ebcbc57f1066b8b4c', 'name': 'Intersection', 'pluralName': 'Intersections', 'shortName': 'Intersection', 'icon': {'prefix': 'https://ss3.4sqi.net/img/categories_v2/travel/default_', 'suffix': '.png'}, 'primary': True}]"
49,4ba05003f964a520da6737e3,H06 (本陣駅),35.176816307534885,136.86645651898337,"[{'id': '4bf58dd8d48988d1fd931735', 'name': 'Metro Station', 'pluralName': 'Metro Stations', 'shortName': 'Metro', 'icon': {'prefix': 'https://ss3.4sqi.net/img/categories_v2/travel/subway_', 'suffix': '.png'}, 'primary': True}]"
50,58dc4ec592ca4c3a35981340,日比津小学校 交差点,35.183935,136.86369,"[{'id': '52f2ab2ebcbc57f1066b8b4c', 'name': 'Intersection', 'pluralName': 'Intersections', 'shortName': 'Intersection', 'icon': {'prefix': 'https://ss3.4sqi.net/img/categories_v2/travel/default_', 'suffix': '.png'}, 'primary': True}]"
50,552f6f82498ea9b85f30ada6,B'pac 本陣,35.18125534057617,136.86642456054688,"[{'id': '4bf58dd8d48988d1f8931735', 'name': 'Bed & Breakfast', 'pluralName': 'Bed & Breakfasts', 'shortName': 'B & B', 'icon': {'prefix': 'https://ss3.4sqi.net/img/categories_v2/travel/bedandbreakfast_', 'suffix': '.png'}, 'primary': True}]"
51,59bc879fb9a5a81354a91b02,新富町停留所,35.187965,136.8649,"[{'id': '52f2ab2ebcbc57f1066b8b4f', 'name': 'Bus Stop', 'pluralName': 'Bus Stops', 'shortName': 'Bus Stop', 'icon': {'prefix': 'https://ss3.4sqi.net/img/categories_v2/travel/busstation_', 'suffix': '.png'}, 'primary': True}]"
51,5823e56d104e361d662a86b0,新富町 交差点,35.18726233131083,136.8637302517891,"[{'id': '52f2ab2ebcbc57f1066b8b4c', 'name': 'Intersection', 'pluralName': 'Intersections', 'shortName': 'Intersection', 'icon': {'prefix': 'https://ss3.4sqi.net/img/categories_v2/travel/default_', 'suffix': '.png'}, 'primary': True}]"
52,57a6902d498efca28f9c718d,問屋町交差点,35.193151,136.867111,"[{'id': '52f2ab2ebcbc57f1066b8b4c', 'name': 'Intersection', 'pluralName': 'Intersections', 'shortName': 'Intersection', 'icon': {'prefix': 'https://ss3.4sqi.net/img/categories_v2/travel/default_', 'suffix': '.png'}, 'primary': True}]"
53,5448f2d7498eb1b98b051e1e,清須市西枇杷島町交差点,35.19845,136.86413,"[{'id': '52f2ab2ebcbc57f1066b8b4c', 'name': 'Intersection', 'pluralName': 'Intersections', 'shortName': 'Intersection', 'icon': {'prefix': 'https://ss3.4sqi.net/img/categories_v2/travel/default_', 'suffix': '.png'}, 'primary': True}]"
53,4b67f37bf964a520eb612be3,Nishi-Biwajima Station (西枇杷島駅),35.19519807692497,136.86571746062253,"[{'id': '4bf58dd8d48988d129951735', 'name': 'Train Station', 'pluralName': 'Train Stations', 'shortName': 'Train Station', 'icon': {'prefix': 'https://ss3.4sqi.net/img/categories_v2/travel/trainstation_', 'suffix': '.png'}, 'primary': True}]"
53,53fa79f4498e8bbd72d8ddae,旭二丁目北 交差点,35.197488,136.861336,"[{'id': '52f2ab2ebcbc57f1066b8b4c', 'name': 'Intersection', 'pluralName': 'Intersections', 'shortName': 'Intersection', 'icon': {'prefix': 'https://ss3.4sqi.net/img/categories_v2/travel/default_', 'suffix': '.png'}, 'primary': True}]"
57,4fb6e1d3e4b08725a89f8bf8,新木町 バス停,35.21706265625611,136.86356058042665,"[{'id': '52f2ab2ebcbc57f1066b8b4f', 'name': 'Bus Stop', 'pluralName': 'Bus Stops', 'shortName': 'Bus Stop', 'icon': {'prefix': 'https://ss3.4sqi.net/img/categories_v2/travel/busstation_', 'suffix': '.png'}, 'primary': True}]"
58,586242b0761b1a5ec720423a,上橋町交差点,35.22239852112722,136.86481722223064,"[{'id': '52f2ab2ebcbc57f1066b8b4c', 'name': 'Intersection', 'pluralName': 'Intersections', 'shortName': 'Intersection', 'icon': {'prefix': 'https://ss3.4sqi.net/img/categories_v2/travel/default_', 'suffix': '.png'}, 'primary': True}]"
60,54d56291498ed049e4f7c564,平田小学校 バス停 (名古屋市交通局),35.22770309448242,136.8634490966797,"[{'id': '52f2ab2ebcbc57f1066b8b4f', 'name': 'Bus Stop', 'pluralName': 'Bus Stops', 'shortName': 'Bus Stop', 'icon': {'prefix': 'https://ss3.4sqi.net/img/categories_v2/travel/busstation_', 'suffix': '.png'}, 'primary': True}]"
60,5a5066308e886a7c68fbf34c,平田小北 交差点,35.227534,136.86439,"[{'id': '52f2ab2ebcbc57f1066b8b4c', 'name': 'Intersection', 'pluralName': 'Intersections', 'shortName': 'Intersection', 'icon': {'prefix': 'https://ss3.4sqi.net/img/categories_v2/travel/default_', 'suffix': '.png'}, 'primary': True}]"
62,587df82fcc05d15ae4bae297,名四町北交差点,35.103028,136.870457,"[{'id': '52f2ab2ebcbc57f1066b8b4c', 'name': 'Intersection', 'pluralName': 'Intersections', 'shortName': 'Intersection', 'icon': {'prefix': 'https://ss3.4sqi.net/img/categories_v2/travel/default_', 'suffix': '.png'}, 'primary': True}]"
62,56482294498eb29cde8d4092,名四町交差点,35.101083334605526,136.87094201532926,"[{'id': '52f2ab2ebcbc57f1066b8b4c', 'name': 'Intersection', 'pluralName': 'Intersections', 'shortName': 'Intersection', 'icon': {'prefix': 'https://ss3.4sqi.net/img/categories_v2/travel/default_', 'suffix': '.png'}, 'primary': True}]"
62,56bb0799498ef1ec27bf2bb4,築盛町交差点,35.10495349088719,136.87022924423218,"[{'id': '52f2ab2ebcbc57f1066b8b4c', 'name': 'Intersection', 'pluralName': 'Intersections', 'shortName': 'Intersection', 'icon': {'prefix': 'https://ss3.4sqi.net/img/categories_v2/travel/default_', 'suffix': '.png'}, 'primary': True}]"
64,500667efe4b0361f0a46214e,競馬場前交差点,35.11361618690441,136.86952114105225,"[{'id': '52f2ab2ebcbc57f1066b8b4c', 'name': 'Intersection', 'pluralName': 'Intersections', 'shortName': 'Intersection', 'icon': {'prefix': 'https://ss3.4sqi.net/img/categories_v2/travel/default_', 'suffix': '.png'}, 'primary': True}]"
64,56a48920498e8d364e79bb88,競馬場正門(名古屋市営バス),35.113673354365034,136.8678966142874,"[{'id': '52f2ab2ebcbc57f1066b8b4f', 'name': 'Bus Stop', 'pluralName': 'Bus Stops', 'shortName': 'Bus Stop', 'icon': {'prefix': 'https://ss3.4sqi.net/img/categories_v2/travel/busstation_', 'suffix': '.png'}, 'primary': True}]"
64,56a48958498efaecc4a37fa0,競馬場バス停,35.113828,136.869729,"[{'id': '52f2ab2ebcbc57f1066b8b4f', 'name': 'Bus Stop', 'pluralName': 'Bus Stops', 'shortName': 'Bus Stop', 'icon': {'prefix': 'https://ss3.4sqi.net/img/categories_v2/travel/busstation_', 'suffix': '.png'}, 'primary': True}]"
65,590e8da2f1fdaf5d23c236ad,小割通1交差点,35.116566,136.869378,"[{'id': '52f2ab2ebcbc57f1066b8b4c', 'name': 'Intersection', 'pluralName': 'Intersections', 'shortName': 'Intersection', 'icon': {'prefix': 'https://ss3.4sqi.net/img/categories_v2/travel/default_', 'suffix': '.png'}, 'primary': True}]"
66,4e07f32fb0fbba5eee1f90bd,昭明町バス停,35.11988854967058,136.8692022934556,"[{'id': '4bf58dd8d48988d1fe931735', 'name': 'Bus Station', 'pluralName': 'Bus Stations', 'shortName': 'Bus Station', 'icon': {'prefix': 'https://ss3.4sqi.net/img/categories_v2/travel/busstation_', 'suffix': '.png'}, 'primary': True}]"
66,58f048957b2e042245594f49,小碓通5交差点,35.120044,136.869276,"[{'id': '52f2ab2ebcbc57f1066b8b4c', 'name': 'Intersection', 'pluralName': 'Intersections', 'shortName': 'Intersection', 'icon': {'prefix': 'https://ss3.4sqi.net/img/categories_v2/travel/default_', 'suffix': '.png'}, 'primary': True}]"
67,551e2893498eb3ef9e22af93,昭和橋通歩道橋 (国道1号線 361.95 昭和橋通3交差点),35.12450269202072,136.8690990302239,"[{'id': '52f2ab2ebcbc57f1066b8b4c', 'name': 'Intersection', 'pluralName': 'Intersections', 'shortName': 'Intersection', 'icon': {'prefix': 'https://ss3.4sqi.net/img/categories_v2/travel/default_', 'suffix': '.png'}, 'primary': True}]"
67,55fcb6cb498e7c8fc14c3ac8,中野新町 バス停,35.124698638916016,136.86825561523438,"[{'id': '52f2ab2ebcbc57f1066b8b4f', 'name': 'Bus Stop', 'pluralName': 'Bus Stops', 'shortName': 'Bus Stop', 'icon': {'prefix': 'https://ss3.4sqi.net/img/categories_v2/travel/busstation_', 'suffix': '.png'}, 'primary': True}]"
67,5ba83dd9bf7dde002c3550a5,昭和橋通4交差点,35.12476,136.866727,"[{'id': '52f2ab2ebcbc57f1066b8b4c', 'name': 'Intersection', 'pluralName': 'Intersections', 'shortName': 'Intersection', 'icon': {'prefix': 'https://ss3.4sqi.net/img/categories_v2/travel/default_', 'suffix': '.png'}, 'primary': True}]"
67,4cecd7225de16ea8dfceb296,昭和橋通3交差点,35.12530082357218,136.8691890660851,"[{'id': '52f2ab2ebcbc57f1066b8b4c', 'name': 'Intersection', 'pluralName': 'Intersections', 'shortName': 'Intersection', 'icon': {'prefix': 'https://ss3.4sqi.net/img/categories_v2/travel/default_', 'suffix': '.png'}, 'primary': True}]"
68,5987be629411f219a9924554,太平通6交差点,35.128134,136.869032,"[{'id': '52f2ab2ebcbc57f1066b8b4c', 'name': 'Intersection', 'pluralName': 'Intersections', 'shortName': 'Intersection', 'icon': {'prefix': 'https://ss3.4sqi.net/img/categories_v2/travel/default_', 'suffix': '.png'}, 'primary': True}]"
68,54168746498e3d2a9d785fbd,太平通６丁目　バス停,35.13040598286664,136.8691700399343,"[{'id': '52f2ab2ebcbc57f1066b8b4f', 'name': 'Bus Stop', 'pluralName': 'Bus Stops', 'shortName': 'Bus Stop', 'icon': {'prefix': 'https://ss3.4sqi.net/img/categories_v2/travel/busstation_', 'suffix': '.png'}, 'primary': True}]"
68,51205c63e4b061129223b349,太平通5交差点,35.131561800640945,136.86894178390503,"[{'id': '52f2ab2ebcbc57f1066b8b4c', 'name': 'Intersection', 'pluralName': 'Intersections', 'shortName': 'Intersection', 'icon': {'prefix': 'https://ss3.4sqi.net/img/categories_v2/travel/default_', 'suffix': '.png'}, 'primary': True}]"
69,54142d2f498e60747d215cc3,太平通3交差点,35.135608,136.869535,"[{'id': '52f2ab2ebcbc57f1066b8b4c', 'name': 'Intersection', 'pluralName': 'Intersections', 'shortName': 'Intersection', 'icon': {'prefix': 'https://ss3.4sqi.net/img/categories_v2/travel/default_', 'suffix': '.png'}, 'primary': True}]"
69,50696cb6e4b062f09033e69b,長良中学校バス停,35.13355204757079,136.86881025843027,"[{'id': '52f2ab2ebcbc57f1066b8b4f', 'name': 'Bus Stop', 'pluralName': 'Bus Stops', 'shortName': 'Bus Stop', 'icon': {'prefix': 'https://ss3.4sqi.net/img/categories_v2/travel/busstation_', 'suffix': '.png'}, 'primary': True}]"
69,5bd1573dc47cf90039d64f41,宮脇町バス停,35.13575,136.86816,"[{'id': '52f2ab2ebcbc57f1066b8b4f', 'name': 'Bus Stop', 'pluralName': 'Bus Stops', 'shortName': 'Bus Stop', 'icon': {'prefix': 'https://ss3.4sqi.net/img/categories_v2/travel/busstation_', 'suffix': '.png'}, 'primary': True}]"
70,5bd6d13b01bc5a002c274c87,太平通2交差点,35.138146,136.870075,"[{'id': '52f2ab2ebcbc57f1066b8b4c', 'name': 'Intersection', 'pluralName': 'Intersections', 'shortName': 'Intersection', 'icon': {'prefix': 'https://ss3.4sqi.net/img/categories_v2/travel/default_', 'suffix': '.png'}, 'primary': True}]"
70,4f9b6b0ae4b0ec21f4a9e809,篠原橋通2交差点,35.140528352554455,136.8670539934084,"[{'id': '52f2ab2ebcbc57f1066b8b4c', 'name': 'Intersection', 'pluralName': 'Intersections', 'shortName': 'Intersection', 'icon': {'prefix': 'https://ss3.4sqi.net/img/categories_v2/travel/default_', 'suffix': '.png'}, 'primary': True}]"
71,4e5b8cdc091a1023bdff275e,松葉公園交差点,35.141048458283734,136.87087769458736,"[{'id': '52f2ab2ebcbc57f1066b8b4c', 'name': 'Intersection', 'pluralName': 'Intersections', 'shortName': 'Intersection', 'icon': {'prefix': 'https://ss3.4sqi.net/img/categories_v2/travel/default_', 'suffix': '.png'}, 'primary': True}]"
72,4da6df178154fe28a8d982ef,松葉 (名古屋市営バス),35.148826,136.865839,"[{'id': '4bf58dd8d48988d1fe931735', 'name': 'Bus Station', 'pluralName': 'Bus Stations', 'shortName': 'Bus Station', 'icon': {'prefix': 'https://ss3.4sqi.net/img/categories_v2/travel/busstation_', 'suffix': '.png'}, 'primary': True}]"
73,5bf8eb62c62b49002cbec7b1,長良本町バス停,35.150528,136.8693,"[{'id': '52f2ab2ebcbc57f1066b8b4f', 'name': 'Bus Stop', 'pluralName': 'Bus Stops', 'shortName': 'Bus Stop', 'icon': {'prefix': 'https://ss3.4sqi.net/img/categories_v2/travel/busstation_', 'suffix': '.png'}, 'primary': True}]"
73,4decf3bf1fc7d5135cc3116a,乗越町 (名古屋市営バス),35.154150538696626,136.87051489949226,"[{'id': '4bf58dd8d48988d1fe931735', 'name': 'Bus Station', 'pluralName': 'Bus Stations', 'shortName': 'Bus Station', 'icon': {'prefix': 'https://ss3.4sqi.net/img/categories_v2/travel/busstation_', 'suffix': '.png'}, 'primary': True}]"
74,4c36f879dfb0e21effe4aba8,Kogane Station (E03) (黄金駅),35.156320041964335,136.8706935806586,"[{'id': '4bf58dd8d48988d129951735', 'name': 'Train Station', 'pluralName': 'Train Stations', 'shortName': 'Train Station', 'icon': {'prefix': 'https://ss3.4sqi.net/img/categories_v2/travel/trainstation_', 'suffix': '.png'}, 'primary': True}]"
74,54828356498e1787e901db8b,黄金跨線橋北 交差点,35.15717063545523,136.87057131864293,"[{'id': '52f2ab2ebcbc57f1066b8b4c', 'name': 'Intersection', 'pluralName': 'Intersections', 'shortName': 'Intersection', 'icon': {'prefix': 'https://ss3.4sqi.net/img/categories_v2/travel/default_', 'suffix': '.png'}, 'primary': True}]"
74,55d7d2ec498e3fdd20bad6f2,笹島信号場,35.15613517039202,136.87175273895264,"[{'id': '4bf58dd8d48988d129951735', 'name': 'Train Station', 'pluralName': 'Train Stations', 'shortName': 'Train Station', 'icon': {'prefix': 'https://ss3.4sqi.net/img/categories_v2/travel/trainstation_', 'suffix': '.png'}, 'primary': True}]"
75,500ce9ede4b01d293c9d3a5c,栄生三丁目交差点,35.16269486682074,136.86804336430492,"[{'id': '52f2ab2ebcbc57f1066b8b4c', 'name': 'Intersection', 'pluralName': 'Intersections', 'shortName': 'Intersection', 'icon': {'prefix': 'https://ss3.4sqi.net/img/categories_v2/travel/default_', 'suffix': '.png'}, 'primary': True}]"
75,58f95f34a35dce24a1620802,黄金通3交差点,35.16212,136.87138,"[{'id': '52f2ab2ebcbc57f1066b8b4c', 'name': 'Intersection', 'pluralName': 'Intersections', 'shortName': 'Intersection', 'icon': {'prefix': 'https://ss3.4sqi.net/img/categories_v2/travel/default_', 'suffix': '.png'}, 'primary': True}]"
76,529828b3498ea4823f798440,市バス・名鉄バス 大門通東,35.167853378683695,136.86861991882324,"[{'id': '4bf58dd8d48988d1fe931735', 'name': 'Bus Station', 'pluralName': 'Bus Stations', 'shortName': 'Bus Station', 'icon': {'prefix': 'https://ss3.4sqi.net/img/categories_v2/travel/busstation_', 'suffix': '.png'}, 'primary': True}]"
76,52a6b03d11d2708d8340643b,ビジネスホテルアップル,35.166473,136.87196,"[{'id': '4bf58dd8d48988d1fa931735', 'name': 'Hotel', 'pluralName': 'Hotels', 'shortName': 'Hotel', 'icon': {'prefix': 'https://ss3.4sqi.net/img/categories_v2/travel/hotel_', 'suffix': '.png'}, 'primary': True}]"
77,52c7f2b4498e879a905d91d6,浅野屋,35.170419,136.869867,"[{'id': '4bf58dd8d48988d1fa931735', 'name': 'Hotel', 'pluralName': 'Hotels', 'shortName': 'Hotel', 'icon': {'prefix': 'https://ss3.4sqi.net/img/categories_v2/travel/hotel_', 'suffix': '.png'}, 'primary': True}]"
77,5414e359498e6cd2a35dae80,太閤通5 交差点,35.167949083271,136.86717707198582,"[{'id': '52f2ab2ebcbc57f1066b8b4c', 'name': 'Intersection', 'pluralName': 'Intersections', 'shortName': 'Intersection', 'icon': {'prefix': 'https://ss3.4sqi.net/img/categories_v2/travel/default_', 'suffix': '.png'}, 'primary': True}]"
79,51f43044498e264ea5c42b4a,本陣通3交差点,35.177596800535774,136.8677294254303,"[{'id': '52f2ab2ebcbc57f1066b8b4c', 'name': 'Intersection', 'pluralName': 'Intersections', 'shortName': 'Intersection', 'icon': {'prefix': 'https://ss3.4sqi.net/img/categories_v2/travel/default_', 'suffix': '.png'}, 'primary': True}]"
81,5403fce4498e30d5fd0bdbb6,枇杷島二丁目交差点,35.190199,136.868636,"[{'id': '52f2ab2ebcbc57f1066b8b4c', 'name': 'Intersection', 'pluralName': 'Intersections', 'shortName': 'Intersection', 'icon': {'prefix': 'https://ss3.4sqi.net/img/categories_v2/travel/default_', 'suffix': '.png'}, 'primary': True}]"
81,4b6550b6f964a520f9ec2ae3,Higashi-Biwajima Station (東枇杷島駅),35.18986220554489,136.8702281654598,"[{'id': '4bf58dd8d48988d129951735', 'name': 'Train Station', 'pluralName': 'Train Stations', 'shortName': 'Train Station', 'icon': {'prefix': 'https://ss3.4sqi.net/img/categories_v2/travel/trainstation_', 'suffix': '.png'}, 'primary': True}]"
81,57457042cd1071571d3281e4,枇杷島一丁目交差点,35.189212,136.871281,"[{'id': '52f2ab2ebcbc57f1066b8b4c', 'name': 'Intersection', 'pluralName': 'Intersections', 'shortName': 'Intersection', 'icon': {'prefix': 'https://ss3.4sqi.net/img/categories_v2/travel/default_', 'suffix': '.png'}, 'primary': True}]"
83,55c5ad52498e5c7ce4d03622,下砂杁信号場,35.197944009438686,136.86868717587254,"[{'id': '4bf58dd8d48988d129951735', 'name': 'Train Station', 'pluralName': 'Train Stations', 'shortName': 'Train Station', 'icon': {'prefix': 'https://ss3.4sqi.net/img/categories_v2/travel/trainstation_', 'suffix': '.png'}, 'primary': True}]"
84,4b83ede4f964a520181731e3,Shimo-Otai Station (下小田井駅),35.202206522251274,136.87082696151947,"[{'id': '4bf58dd8d48988d129951735', 'name': 'Train Station', 'pluralName': 'Train Stations', 'shortName': 'Train Station', 'icon': {'prefix': 'https://ss3.4sqi.net/img/categories_v2/travel/trainstation_', 'suffix': '.png'}, 'primary': True}]"
85,4c6e7743d5c3a1cd3e47c82b,古城交差点,35.206221455929146,136.86904695649974,"[{'id': '52f2ab2ebcbc57f1066b8b4c', 'name': 'Intersection', 'pluralName': 'Intersections', 'shortName': 'Intersection', 'icon': {'prefix': 'https://ss3.4sqi.net/img/categories_v2/travel/default_', 'suffix': '.png'}, 'primary': True}]"
86,4ed9e3a0b8f7fcd03fa7fcbf,古城(名古屋市営バス),35.20918139582652,136.86939727167842,"[{'id': '4bf58dd8d48988d1fe931735', 'name': 'Bus Station', 'pluralName': 'Bus Stations', 'shortName': 'Bus Station', 'icon': {'prefix': 'https://ss3.4sqi.net/img/categories_v2/travel/busstation_', 'suffix': '.png'}, 'primary': True}]"
86,5432575a498e669166792dd5,中小田井三交差点,35.21296837130444,136.87024971477967,"[{'id': '52f2ab2ebcbc57f1066b8b4c', 'name': 'Intersection', 'pluralName': 'Intersections', 'shortName': 'Intersection', 'icon': {'prefix': 'https://ss3.4sqi.net/img/categories_v2/travel/default_', 'suffix': '.png'}, 'primary': True}]"
87,53fc59e3498e41f50c3e537d,中小田井公園西 交差点,35.214843,136.871116,"[{'id': '52f2ab2ebcbc57f1066b8b4c', 'name': 'Intersection', 'pluralName': 'Intersections', 'shortName': 'Intersection', 'icon': {'prefix': 'https://ss3.4sqi.net/img/categories_v2/travel/default_', 'suffix': '.png'}, 'primary': True}]"
87,54534837498ee281f0084ad3,中小田井四 交差点,35.215795,136.871654,"[{'id': '52f2ab2ebcbc57f1066b8b4c', 'name': 'Intersection', 'pluralName': 'Intersections', 'shortName': 'Intersection', 'icon': {'prefix': 'https://ss3.4sqi.net/img/categories_v2/travel/default_', 'suffix': '.png'}, 'primary': True}]"
89,545d9e7f498ed1b7f696d344,平中町交差点,35.22460488795956,136.8701648712158,"[{'id': '52f2ab2ebcbc57f1066b8b4c', 'name': 'Intersection', 'pluralName': 'Intersections', 'shortName': 'Intersection', 'icon': {'prefix': 'https://ss3.4sqi.net/img/categories_v2/travel/default_', 'suffix': '.png'}, 'primary': True}]"
89,585a625ca83a2509d01d77d8,木前町交差点,35.222639444105546,136.8677500995011,"[{'id': '52f2ab2ebcbc57f1066b8b4c', 'name': 'Intersection', 'pluralName': 'Intersections', 'shortName': 'Intersection', 'icon': {'prefix': 'https://ss3.4sqi.net/img/categories_v2/travel/default_', 'suffix': '.png'}, 'primary': True}]"
90,4e0bb30f1838d77f46f280a4,城町交差点,35.22707639899943,136.86842679977417,"[{'id': '52f2ab2ebcbc57f1066b8b4c', 'name': 'Intersection', 'pluralName': 'Intersections', 'shortName': 'Intersection', 'icon': {'prefix': 'https://ss3.4sqi.net/img/categories_v2/travel/default_', 'suffix': '.png'}, 'primary': True}]"
90,579a9fa8498e9c3e318f2d8f,平出町交差点,35.23002537165805,136.86822321574058,"[{'id': '52f2ab2ebcbc57f1066b8b4c', 'name': 'Intersection', 'pluralName': 'Intersections', 'shortName': 'Intersection', 'icon': {'prefix': 'https://ss3.4sqi.net/img/categories_v2/travel/default_', 'suffix': '.png'}, 'primary': True}]"
91,599e75f3851de52c6d57d606,中川橋 バス停(名古屋市交通局),35.097091,136.875858,"[{'id': '52f2ab2ebcbc57f1066b8b4f', 'name': 'Bus Stop', 'pluralName': 'Bus Stops', 'shortName': 'Bus Stop', 'icon': {'prefix': 'https://ss3.4sqi.net/img/categories_v2/travel/busstation_', 'suffix': '.png'}, 'primary': True}]"
91,5438b15b498eef542cb2a0b5,築三町 バス停,35.095572,136.873636,"[{'id': '52f2ab2ebcbc57f1066b8b4f', 'name': 'Bus Stop', 'pluralName': 'Bus Stops', 'shortName': 'Bus Stop', 'icon': {'prefix': 'https://ss3.4sqi.net/img/categories_v2/travel/busstation_', 'suffix': '.png'}, 'primary': True}]"
91,542ea1ba498e34ea4aaa1126,中川橋西交差点,35.096465,136.875905,"[{'id': '52f2ab2ebcbc57f1066b8b4c', 'name': 'Intersection', 'pluralName': 'Intersections', 'shortName': 'Intersection', 'icon': {'prefix': 'https://ss3.4sqi.net/img/categories_v2/travel/default_', 'suffix': '.png'}, 'primary': True}]"
91,542ea169498e3f8058f347de,中川本町5交差点,35.099601,136.876055,"[{'id': '52f2ab2ebcbc57f1066b8b4c', 'name': 'Intersection', 'pluralName': 'Intersections', 'shortName': 'Intersection', 'icon': {'prefix': 'https://ss3.4sqi.net/img/categories_v2/travel/default_', 'suffix': '.png'}, 'primary': True}]"
93,568ef5f8498e01f790b0b3a5,名古屋市交通局 中川本町 バス停,35.106323,136.87617,"[{'id': '52f2ab2ebcbc57f1066b8b4f', 'name': 'Bus Stop', 'pluralName': 'Bus Stops', 'shortName': 'Bus Stop', 'icon': {'prefix': 'https://ss3.4sqi.net/img/categories_v2/travel/busstation_', 'suffix': '.png'}, 'primary': True}]"
94,5718bc2a498efa7569e3c98c,名古屋市交通局 東海橋 バス停 ２番乗り場,35.11344,136.87485,"[{'id': '52f2ab2ebcbc57f1066b8b4f', 'name': 'Bus Stop', 'pluralName': 'Bus Stops', 'shortName': 'Bus Stop', 'icon': {'prefix': 'https://ss3.4sqi.net/img/categories_v2/travel/busstation_', 'suffix': '.png'}, 'primary': True}]"
94,5718bbedcd10e3dee95d6331,名古屋市交通局 東海橋 バス停 １番乗り場,35.11362,136.87541,"[{'id': '52f2ab2ebcbc57f1066b8b4f', 'name': 'Bus Stop', 'pluralName': 'Bus Stops', 'shortName': 'Bus Stop', 'icon': {'prefix': 'https://ss3.4sqi.net/img/categories_v2/travel/busstation_', 'suffix': '.png'}, 'primary': True}]"
95,5718bbb1498e932745e9cc06,名古屋市交通局 東海橋 バス停 ６番乗り場,35.11601,136.87595,"[{'id': '52f2ab2ebcbc57f1066b8b4f', 'name': 'Bus Stop', 'pluralName': 'Bus Stops', 'shortName': 'Bus Stop', 'icon': {'prefix': 'https://ss3.4sqi.net/img/categories_v2/travel/busstation_', 'suffix': '.png'}, 'primary': True}]"
95,567a5327498ec8eaa67fda1a,東海橋転回場 (市バス),35.11533720309428,136.87592254910686,"[{'id': '4bf58dd8d48988d1fe931735', 'name': 'Bus Station', 'pluralName': 'Bus Stations', 'shortName': 'Bus Station', 'icon': {'prefix': 'https://ss3.4sqi.net/img/categories_v2/travel/busstation_', 'suffix': '.png'}, 'primary': True}]"
95,55f3cc45498e1506d63b5932,新船町交差点,35.11724090576172,136.8759307861328,"[{'id': '52f2ab2ebcbc57f1066b8b4c', 'name': 'Intersection', 'pluralName': 'Intersections', 'shortName': 'Intersection', 'icon': {'prefix': 'https://ss3.4sqi.net/img/categories_v2/travel/default_', 'suffix': '.png'}, 'primary': True}]"
95,4f3d0b05e4b02fa0cfc92050,東海橋 バス停,35.114407,136.87599,"[{'id': '52f2ab2ebcbc57f1066b8b4f', 'name': 'Bus Stop', 'pluralName': 'Bus Stops', 'shortName': 'Bus Stop', 'icon': {'prefix': 'https://ss3.4sqi.net/img/categories_v2/travel/busstation_', 'suffix': '.png'}, 'primary': True}]"
96,5126f4abe4b0e675b9707cd9,名阪近鉄バス 名古屋営業所,35.122294682704606,136.8716649111303,"[{'id': '4bf58dd8d48988d1fe931735', 'name': 'Bus Station', 'pluralName': 'Bus Stations', 'shortName': 'Bus Station', 'icon': {'prefix': 'https://ss3.4sqi.net/img/categories_v2/travel/busstation_', 'suffix': '.png'}, 'primary': True}]"
96,58f04112fe374020c847b2eb,玉船町交差点,35.120623,136.875868,"[{'id': '52f2ab2ebcbc57f1066b8b4c', 'name': 'Intersection', 'pluralName': 'Intersections', 'shortName': 'Intersection', 'icon': {'prefix': 'https://ss3.4sqi.net/img/categories_v2/travel/default_', 'suffix': '.png'}, 'primary': True}]"
96,4edffda929c2c6e331bfff08,玉船町三丁目バス停,35.121131010180314,136.87584802470687,"[{'id': '52f2ab2ebcbc57f1066b8b4f', 'name': 'Bus Stop', 'pluralName': 'Bus Stops', 'shortName': 'Bus Stop', 'icon': {'prefix': 'https://ss3.4sqi.net/img/categories_v2/travel/busstation_', 'suffix': '.png'}, 'primary': True}]"
97,5bc96fb9724750002c5d994f,昭和橋通1交差点,35.12503,136.873312,"[{'id': '52f2ab2ebcbc57f1066b8b4c', 'name': 'Intersection', 'pluralName': 'Intersections', 'shortName': 'Intersection', 'icon': {'prefix': 'https://ss3.4sqi.net/img/categories_v2/travel/default_', 'suffix': '.png'}, 'primary': True}]"
97,54142c24498e9aee38d3527f,昭和橋西交差点,35.12523670034296,136.87512574293675,"[{'id': '52f2ab2ebcbc57f1066b8b4c', 'name': 'Intersection', 'pluralName': 'Intersections', 'shortName': 'Intersection', 'icon': {'prefix': 'https://ss3.4sqi.net/img/categories_v2/travel/default_', 'suffix': '.png'}, 'primary': True}]"
97,567f9b02498edbf19b480bcb,名古屋市交通局 昭和橋 バス停 ６番のりば,35.125219559027585,136.875807521615,"[{'id': '52f2ab2ebcbc57f1066b8b4f', 'name': 'Bus Stop', 'pluralName': 'Bus Stops', 'shortName': 'Bus Stop', 'icon': {'prefix': 'https://ss3.4sqi.net/img/categories_v2/travel/busstation_', 'suffix': '.png'}, 'primary': True}]"
98,544f82c1498e01e80f3dde58,中野橋西交差点,35.12809512817067,136.8732035553687,"[{'id': '52f2ab2ebcbc57f1066b8b4c', 'name': 'Intersection', 'pluralName': 'Intersections', 'shortName': 'Intersection', 'icon': {'prefix': 'https://ss3.4sqi.net/img/categories_v2/travel/default_', 'suffix': '.png'}, 'primary': True}]"
98,567f9a24498e025b668d4b03,中野橋 バス停(名古屋市営バス),35.12923431717067,136.87570809498473,"[{'id': '52f2ab2ebcbc57f1066b8b4f', 'name': 'Bus Stop', 'pluralName': 'Bus Stops', 'shortName': 'Bus Stop', 'icon': {'prefix': 'https://ss3.4sqi.net/img/categories_v2/travel/busstation_', 'suffix': '.png'}, 'primary': True}]"
98,567f9a56498e99f50951b5c7,蜆橋(名古屋市営バス),35.129233,136.875709,"[{'id': '52f2ab2ebcbc57f1066b8b4f', 'name': 'Bus Stop', 'pluralName': 'Bus Stops', 'shortName': 'Bus Stop', 'icon': {'prefix': 'https://ss3.4sqi.net/img/categories_v2/travel/busstation_', 'suffix': '.png'}, 'primary': True}]"
98,54142c7e498ee5ed6e6b8bb5,蜆橋西交差点,35.128488,136.875597,"[{'id': '52f2ab2ebcbc57f1066b8b4c', 'name': 'Intersection', 'pluralName': 'Intersections', 'shortName': 'Intersection', 'icon': {'prefix': 'https://ss3.4sqi.net/img/categories_v2/travel/default_', 'suffix': '.png'}, 'primary': True}]"
99,542e9fa2498e7df38d63c12c,野立橋西交差点,35.134928,136.875411,"[{'id': '52f2ab2ebcbc57f1066b8b4c', 'name': 'Intersection', 'pluralName': 'Intersections', 'shortName': 'Intersection', 'icon': {'prefix': 'https://ss3.4sqi.net/img/categories_v2/travel/default_', 'suffix': '.png'}, 'primary': True}]"
100,4e8eb012d22d11e244bb2967,松葉公園 (名古屋市営バス),35.14073939638331,136.8714884542659,"[{'id': '4bf58dd8d48988d1fe931735', 'name': 'Bus Station', 'pluralName': 'Bus Stations', 'shortName': 'Bus Station', 'icon': {'prefix': 'https://ss3.4sqi.net/img/categories_v2/travel/busstation_', 'suffix': '.png'}, 'primary': True}]"
100,5412f966498e2efbb5a6c48d,篠原橋西交差点,35.14078577169305,136.87522888183594,"[{'id': '52f2ab2ebcbc57f1066b8b4c', 'name': 'Intersection', 'pluralName': 'Intersections', 'shortName': 'Intersection', 'icon': {'prefix': 'https://ss3.4sqi.net/img/categories_v2/travel/default_', 'suffix': '.png'}, 'primary': True}]"
101,4f9fb981e4b0db1b8575d911,市バス 八熊橋,35.14361167575884,136.87478012253777,"[{'id': '52f2ab2ebcbc57f1066b8b4f', 'name': 'Bus Stop', 'pluralName': 'Bus Stops', 'shortName': 'Bus Stop', 'icon': {'prefix': 'https://ss3.4sqi.net/img/categories_v2/travel/busstation_', 'suffix': '.png'}, 'primary': True}]"
101,4e32884445ddcff0a7552f62,四女子町 バス停（名古屋市交通局）,35.144860502975085,136.8718922138214,"[{'id': '52f2ab2ebcbc57f1066b8b4f', 'name': 'Bus Stop', 'pluralName': 'Bus Stops', 'shortName': 'Bus Stop', 'icon': {'prefix': 'https://ss3.4sqi.net/img/categories_v2/travel/busstation_', 'suffix': '.png'}, 'primary': True}]"
101,4d51048c9d4937046f02c839,篠原橋 バス停 (東行き),35.14089,136.87564,"[{'id': '52f2ab2ebcbc57f1066b8b4f', 'name': 'Bus Stop', 'pluralName': 'Bus Stops', 'shortName': 'Bus Stop', 'icon': {'prefix': 'https://ss3.4sqi.net/img/categories_v2/travel/busstation_', 'suffix': '.png'}, 'primary': True}]"
102,4daa99cccda1652a2b912f68,長良橋西交差点,35.148591119258185,136.87454491853714,"[{'id': '52f2ab2ebcbc57f1066b8b4c', 'name': 'Intersection', 'pluralName': 'Intersections', 'shortName': 'Intersection', 'icon': {'prefix': 'https://ss3.4sqi.net/img/categories_v2/travel/default_', 'suffix': '.png'}, 'primary': True}]"
102,4d18483e85fc6dcbab13b44e,四女子町交差点,35.14610613193767,136.87207880186776,"[{'id': '52f2ab2ebcbc57f1066b8b4c', 'name': 'Intersection', 'pluralName': 'Intersections', 'shortName': 'Intersection', 'icon': {'prefix': 'https://ss3.4sqi.net/img/categories_v2/travel/default_', 'suffix': '.png'}, 'primary': True}]"
102,542e9ec0498e6a226c6644c8,長良橋交差点,35.148139302804516,136.87522043386966,"[{'id': '52f2ab2ebcbc57f1066b8b4c', 'name': 'Intersection', 'pluralName': 'Intersections', 'shortName': 'Intersection', 'icon': {'prefix': 'https://ss3.4sqi.net/img/categories_v2/travel/default_', 'suffix': '.png'}, 'primary': True}]"
102,4e074ce3b3ad23ff53ffb20e,名古屋市交通局 長良橋 バス停（北行き）,35.148387718353234,136.87516361928863,"[{'id': '52f2ab2ebcbc57f1066b8b4f', 'name': 'Bus Stop', 'pluralName': 'Bus Stops', 'shortName': 'Bus Stop', 'icon': {'prefix': 'https://ss3.4sqi.net/img/categories_v2/travel/busstation_', 'suffix': '.png'}, 'primary': True}]"
102,541ee7d1498ebde708298e7e,長良町3交差点,35.14944477163291,136.8724413288266,"[{'id': '52f2ab2ebcbc57f1066b8b4c', 'name': 'Intersection', 'pluralName': 'Intersections', 'shortName': 'Intersection', 'icon': {'prefix': 'https://ss3.4sqi.net/img/categories_v2/travel/default_', 'suffix': '.png'}, 'primary': True}]"
102,4dd4943cc65be32e5f88f5ff,長良町三丁目 (名古屋市営バス),35.150010068328406,136.87229722738266,"[{'id': '4bf58dd8d48988d1fe931735', 'name': 'Bus Station', 'pluralName': 'Bus Stations', 'shortName': 'Bus Station', 'icon': {'prefix': 'https://ss3.4sqi.net/img/categories_v2/travel/busstation_', 'suffix': '.png'}, 'primary': True}]"
104,4dccdf3ed22deadedd2b1b05,黄金跨線橋下交差点,35.155428619726734,136.87252978549824,"[{'id': '52f2ab2ebcbc57f1066b8b4c', 'name': 'Intersection', 'pluralName': 'Intersections', 'shortName': 'Intersection', 'icon': {'prefix': 'https://ss3.4sqi.net/img/categories_v2/travel/default_', 'suffix': '.png'}, 'primary': True}]"
104,54dc9049498eddf5b7d64cd9,黄金跨線橋南 交差点,35.15564395114389,136.87304019927979,"[{'id': '52f2ab2ebcbc57f1066b8b4c', 'name': 'Intersection', 'pluralName': 'Intersections', 'shortName': 'Intersection', 'icon': {'prefix': 'https://ss3.4sqi.net/img/categories_v2/travel/default_', 'suffix': '.png'}, 'primary': True}]"
105,574a318c498ea9ee00327a4e,権現通 (名古屋市営バス),35.163612,136.87354,"[{'id': '52f2ab2ebcbc57f1066b8b4f', 'name': 'Bus Stop', 'pluralName': 'Bus Stops', 'shortName': 'Bus Stop', 'icon': {'prefix': 'https://ss3.4sqi.net/img/categories_v2/travel/busstation_', 'suffix': '.png'}, 'primary': True}]"
105,56dbedad498ed1be4bed6245,黄金通2交差点,35.16368729295489,136.87173128128052,"[{'id': '52f2ab2ebcbc57f1066b8b4c', 'name': 'Intersection', 'pluralName': 'Intersections', 'shortName': 'Intersection', 'icon': {'prefix': 'https://ss3.4sqi.net/img/categories_v2/travel/default_', 'suffix': '.png'}, 'primary': True}]"
106,4cd216c67f56a14364c3d8a6,太閤通3交差点,35.16763411633447,136.87240719795227,"[{'id': '52f2ab2ebcbc57f1066b8b4c', 'name': 'Intersection', 'pluralName': 'Intersections', 'shortName': 'Intersection', 'icon': {'prefix': 'https://ss3.4sqi.net/img/categories_v2/travel/default_', 'suffix': '.png'}, 'primary': True}]"
106,4c58b32f7f5995214c5e23ec,中村区役所駅 (Nakamura Kuyakusho Sta.) (S01) (中村区役所駅),35.16768101421308,136.8726111305669,"[{'id': '4bf58dd8d48988d1fd931735', 'name': 'Metro Station', 'pluralName': 'Metro Stations', 'shortName': 'Metro', 'icon': {'prefix': 'https://ss3.4sqi.net/img/categories_v2/travel/subway_', 'suffix': '.png'}, 'primary': True}]"
106,4f48c922e4b0bde5094fc5ab,中村区役所バス停 (西),35.16765045521455,136.87190635681827,"[{'id': '4bf58dd8d48988d1fe931735', 'name': 'Bus Station', 'pluralName': 'Bus Stations', 'shortName': 'Bus Station', 'icon': {'prefix': 'https://ss3.4sqi.net/img/categories_v2/travel/busstation_', 'suffix': '.png'}, 'primary': True}]"
107,540a509a498eebce78b17bda,則武本通2交差点,35.17214227423345,136.87289164501,"[{'id': '52f2ab2ebcbc57f1066b8b4c', 'name': 'Intersection', 'pluralName': 'Intersections', 'shortName': 'Intersection', 'icon': {'prefix': 'https://ss3.4sqi.net/img/categories_v2/travel/default_', 'suffix': '.png'}, 'primary': True}]"
107,4e2d4d6afa76bbf847ebd5e5,なごや花亭 美よし,35.17068418668455,136.87603041011872,"[{'id': '4bf58dd8d48988d1fa931735', 'name': 'Hotel', 'pluralName': 'Hotels', 'shortName': 'Hotel', 'icon': {'prefix': 'https://ss3.4sqi.net/img/categories_v2/travel/hotel_', 'suffix': '.png'}, 'primary': True}]"
108,57638e74498e8ccebcf7ee12,ほのか小学校東 交差点,35.173573,136.87291,"[{'id': '52f2ab2ebcbc57f1066b8b4c', 'name': 'Intersection', 'pluralName': 'Intersections', 'shortName': 'Intersection', 'icon': {'prefix': 'https://ss3.4sqi.net/img/categories_v2/travel/default_', 'suffix': '.png'}, 'primary': True}]"
108,5be0282e2d2fd9002c0e6b28,則武本通1交差点,35.17606,136.87291,"[{'id': '52f2ab2ebcbc57f1066b8b4c', 'name': 'Intersection', 'pluralName': 'Intersections', 'shortName': 'Intersection', 'icon': {'prefix': 'https://ss3.4sqi.net/img/categories_v2/travel/default_', 'suffix': '.png'}, 'primary': True}]"
108,5b926097018cbb002cfa6a35,PUDOステーション ヤマト運輸名駅亀島センター,35.1755062,136.8733243,"[{'id': '5744ccdfe4b0c0459246b4e8', 'name': 'Baggage Locker', 'pluralName': 'Baggage Lockers', 'shortName': 'Baggage Locker', 'icon': {'prefix': 'https://ss3.4sqi.net/img/categories_v2/travel/default_', 'suffix': '.png'}, 'primary': True}]"
108,4cc4c01ac844721e393beb01,本陣通2交差点,35.177294584559206,136.8729565723464,"[{'id': '52f2ab2ebcbc57f1066b8b4c', 'name': 'Intersection', 'pluralName': 'Intersections', 'shortName': 'Intersection', 'icon': {'prefix': 'https://ss3.4sqi.net/img/categories_v2/travel/default_', 'suffix': '.png'}, 'primary': True}]"
109,54360215498e5deaa6d9def0,栄生南交差点,35.181216,136.872934,"[{'id': '52f2ab2ebcbc57f1066b8b4c', 'name': 'Intersection', 'pluralName': 'Intersections', 'shortName': 'Intersection', 'icon': {'prefix': 'https://ss3.4sqi.net/img/categories_v2/travel/default_', 'suffix': '.png'}, 'primary': True}]"
109,4fab1f6be4b0381a48a8d87e,佐古前町 交差点,35.17762,136.870772,"[{'id': '52f2ab2ebcbc57f1066b8b4c', 'name': 'Intersection', 'pluralName': 'Intersections', 'shortName': 'Intersection', 'icon': {'prefix': 'https://ss3.4sqi.net/img/categories_v2/travel/default_', 'suffix': '.png'}, 'primary': True}]"
109,560b916d498e8b17fdebcd52,大日町 交差点,35.18124008178711,136.87196350097656,"[{'id': '52f2ab2ebcbc57f1066b8b4c', 'name': 'Intersection', 'pluralName': 'Intersections', 'shortName': 'Intersection', 'icon': {'prefix': 'https://ss3.4sqi.net/img/categories_v2/travel/default_', 'suffix': '.png'}, 'primary': True}]"
109,542fcdbd498e15b89f7a4e48,井深町 交差点,35.177444001858994,136.87559026120653,"[{'id': '52f2ab2ebcbc57f1066b8b4c', 'name': 'Intersection', 'pluralName': 'Intersections', 'shortName': 'Intersection', 'icon': {'prefix': 'https://ss3.4sqi.net/img/categories_v2/travel/default_', 'suffix': '.png'}, 'primary': True}]"
109,5aaf7050fd9d7365f017658a,十王町東 交差点,35.179455,136.86988,"[{'id': '52f2ab2ebcbc57f1066b8b4c', 'name': 'Intersection', 'pluralName': 'Intersections', 'shortName': 'Intersection', 'icon': {'prefix': 'https://ss3.4sqi.net/img/categories_v2/travel/default_', 'suffix': '.png'}, 'primary': True}]"
110,4b6bfa91f964a520301e2ce3,Sakō Station (栄生駅),35.184102707375885,136.87265047572882,"[{'id': '4bf58dd8d48988d129951735', 'name': 'Train Station', 'pluralName': 'Train Stations', 'shortName': 'Train Station', 'icon': {'prefix': 'https://ss3.4sqi.net/img/categories_v2/travel/trainstation_', 'suffix': '.png'}, 'primary': True}]"
110,4ec8726a8b81dcfdc4adca3e,栄生駅前交差点,35.18336081659653,136.8738957303348,"[{'id': '52f2ab2ebcbc57f1066b8b4c', 'name': 'Intersection', 'pluralName': 'Intersections', 'shortName': 'Intersection', 'icon': {'prefix': 'https://ss3.4sqi.net/img/categories_v2/travel/default_', 'suffix': '.png'}, 'primary': True}]"
110,5ad5ae062faed53635fff18c,栄生駅 名鉄病院改札口,35.18416685822707,136.87262140138998,"[{'id': '4bf58dd8d48988d129951735', 'name': 'Train Station', 'pluralName': 'Train Stations', 'shortName': 'Train Station', 'icon': {'prefix': 'https://ss3.4sqi.net/img/categories_v2/travel/trainstation_', 'suffix': '.png'}, 'primary': True}]"
110,51b5dfe7498e546d1acf335b,栄生交差点,35.1822062,136.8731277,"[{'id': '52f2ab2ebcbc57f1066b8b4c', 'name': 'Intersection', 'pluralName': 'Intersections', 'shortName': 'Intersection', 'icon': {'prefix': 'https://ss3.4sqi.net/img/categories_v2/travel/default_', 'suffix': '.png'}, 'primary': True}]"
110,593cdf39ad1ea4585d9503e8,トヨタ産業技術記念館バス停,35.18248,136.875754,"[{'id': '52f2ab2ebcbc57f1066b8b4f', 'name': 'Bus Stop', 'pluralName': 'Bus Stops', 'shortName': 'Bus Stop', 'icon': {'prefix': 'https://ss3.4sqi.net/img/categories_v2/travel/busstation_', 'suffix': '.png'}, 'primary': True}]"
110,56df88c0498ec1637d1febd9,則武新町四 交差点,35.181623,136.875866,"[{'id': '52f2ab2ebcbc57f1066b8b4c', 'name': 'Intersection', 'pluralName': 'Intersections', 'shortName': 'Intersection', 'icon': {'prefix': 'https://ss3.4sqi.net/img/categories_v2/travel/default_', 'suffix': '.png'}, 'primary': True}]"
111,4e1d10c4b61c7cb34d8ef71a,上更交差点,35.18780637309211,136.87577437938316,"[{'id': '52f2ab2ebcbc57f1066b8b4c', 'name': 'Intersection', 'pluralName': 'Intersections', 'shortName': 'Intersection', 'icon': {'prefix': 'https://ss3.4sqi.net/img/categories_v2/travel/default_', 'suffix': '.png'}, 'primary': True}]"
113,547d489b498e98640c34877b,市バス 琵琶里町,35.196134082902,136.87496476875813,"[{'id': '52f2ab2ebcbc57f1066b8b4f', 'name': 'Bus Stop', 'pluralName': 'Bus Stops', 'shortName': 'Bus Stop', 'icon': {'prefix': 'https://ss3.4sqi.net/img/categories_v2/travel/busstation_', 'suffix': '.png'}, 'primary': True}]"
113,5cfcbb92b6eedb002cb4b23b,枇杷島五交差点,35.196767,136.875169,"[{'id': '52f2ab2ebcbc57f1066b8b4c', 'name': 'Intersection', 'pluralName': 'Intersections', 'shortName': 'Intersection', 'icon': {'prefix': 'https://ss3.4sqi.net/img/categories_v2/travel/default_', 'suffix': '.png'}, 'primary': True}]"
115,5a505d3a6f0aa24b6ee9c7fa,古城小学校東 交差点,35.208359,136.87279,"[{'id': '52f2ab2ebcbc57f1066b8b4c', 'name': 'Intersection', 'pluralName': 'Intersections', 'shortName': 'Intersection', 'icon': {'prefix': 'https://ss3.4sqi.net/img/categories_v2/travel/default_', 'suffix': '.png'}, 'primary': True}]"
117,57ad89c038fa9e23f5e119cb,オリックスレンタカー小田井店,35.215736,136.87349,"[{'id': '4bf58dd8d48988d1ef941735', 'name': 'Rental Car Location', 'pluralName': 'Rental Car Locations', 'shortName': 'Rental Car', 'icon': {'prefix': 'https://ss3.4sqi.net/img/categories_v2/shops/airport_rentalcar_', 'suffix': '.png'}, 'primary': True}]"
117,541bf80a498e4556be9101d5,中小田井五 交差点,35.21746761094468,136.87259756065896,"[{'id': '52f2ab2ebcbc57f1066b8b4c', 'name': 'Intersection', 'pluralName': 'Intersections', 'shortName': 'Intersection', 'icon': {'prefix': 'https://ss3.4sqi.net/img/categories_v2/travel/default_', 'suffix': '.png'}, 'primary': True}]"
117,53fc3f28498e132ebe0be668,島落 バス停（名古屋市交通局）,35.21795175776729,136.8728011361959,"[{'id': '52f2ab2ebcbc57f1066b8b4f', 'name': 'Bus Stop', 'pluralName': 'Bus Stops', 'shortName': 'Bus Stop', 'icon': {'prefix': 'https://ss3.4sqi.net/img/categories_v2/travel/busstation_', 'suffix': '.png'}, 'primary': True}]"
119,50b06c46e4b05090c2169213,新平田橋交差点,35.22322726158741,136.8730007052291,"[{'id': '52f2ab2ebcbc57f1066b8b4c', 'name': 'Intersection', 'pluralName': 'Intersections', 'shortName': 'Intersection', 'icon': {'prefix': 'https://ss3.4sqi.net/img/categories_v2/travel/default_', 'suffix': '.png'}, 'primary': True}]"
119,5815512f38fa51e54e862dc2,上小田井駅 1-2番線ホーム,35.2235870754244,136.87667847340657,"[{'id': '4f4531504b9074f6e4fb0102', 'name': 'Platform', 'pluralName': 'Platforms', 'shortName': 'Platform', 'icon': {'prefix': 'https://ss3.4sqi.net/img/categories_v2/travel/trainstation_', 'suffix': '.png'}, 'primary': True}]"
119,58159d0038fae6c2c7bd7765,上小田井駅 3-4番線ホーム,35.22398013054852,136.87672807412912,"[{'id': '4f4531504b9074f6e4fb0102', 'name': 'Platform', 'pluralName': 'Platforms', 'shortName': 'Platform', 'icon': {'prefix': 'https://ss3.4sqi.net/img/categories_v2/travel/trainstation_', 'suffix': '.png'}, 'primary': True}]"
121,4e869dce82313d9492fb3297,名港線車庫,35.09785871791929,136.87930178174122,"[{'id': '4bf58dd8d48988d1fd931735', 'name': 'Metro Station', 'pluralName': 'Metro Stations', 'shortName': 'Metro', 'icon': {'prefix': 'https://ss3.4sqi.net/img/categories_v2/travel/subway_', 'suffix': '.png'}, 'primary': True}]"
121,5d39bbdbea18590007c6f7d0,Jr東海名古屋資材センター,35.10057,136.87895,"[{'id': '4bf58dd8d48988d129951735', 'name': 'Train Station', 'pluralName': 'Train Stations', 'shortName': 'Train Station', 'icon': {'prefix': 'https://ss3.4sqi.net/img/categories_v2/travel/trainstation_', 'suffix': '.png'}, 'primary': True}]"
122,4e86a575490189708df436fc,名古屋市交通局名港工場,35.101544857288935,136.87794287408911,"[{'id': '4d4b7105d754a06379d81259', 'name': 'Travel & Transport', 'pluralName': 'Travel & Transport', 'shortName': 'Travel', 'icon': {'prefix': 'https://ss3.4sqi.net/img/categories_v2/travel/default_', 'suffix': '.png'}, 'primary': True}]"
122,583489d04f218a7f4eec2571,JR 名古屋港駅,35.101986,136.87993,"[{'id': '4bf58dd8d48988d129951735', 'name': 'Train Station', 'pluralName': 'Train Stations', 'shortName': 'Train Station', 'icon': {'prefix': 'https://ss3.4sqi.net/img/categories_v2/travel/trainstation_', 'suffix': '.png'}, 'primary': True}]"
123,58e8b8976cea3f7650ed3280,いろは橋東交差点,35.10551,136.878118,"[{'id': '52f2ab2ebcbc57f1066b8b4c', 'name': 'Intersection', 'pluralName': 'Intersections', 'shortName': 'Intersection', 'icon': {'prefix': 'https://ss3.4sqi.net/img/categories_v2/travel/default_', 'suffix': '.png'}, 'primary': True}]"
123,5156a165e4b038a1910ecee5,金船町 (名古屋市営バス),35.109482,136.876035,"[{'id': '4bf58dd8d48988d1fe931735', 'name': 'Bus Station', 'pluralName': 'Bus Stations', 'shortName': 'Bus Station', 'icon': {'prefix': 'https://ss3.4sqi.net/img/categories_v2/travel/busstation_', 'suffix': '.png'}, 'primary': True}]"
124,542772ce498eefacef92338d,東海橋東交差点,35.11347248881535,136.87760196919265,"[{'id': '52f2ab2ebcbc57f1066b8b4c', 'name': 'Intersection', 'pluralName': 'Intersections', 'shortName': 'Intersection', 'icon': {'prefix': 'https://ss3.4sqi.net/img/categories_v2/travel/default_', 'suffix': '.png'}, 'primary': True}]"
124,54030c12498ee424eeec581b,東海橋西交差点,35.11348505346546,136.87600637546254,"[{'id': '52f2ab2ebcbc57f1066b8b4c', 'name': 'Intersection', 'pluralName': 'Intersections', 'shortName': 'Intersection', 'icon': {'prefix': 'https://ss3.4sqi.net/img/categories_v2/travel/default_', 'suffix': '.png'}, 'primary': True}]"
124,54389625498e299b602e80b6,東海通5西交差点,35.113431,136.879717,"[{'id': '52f2ab2ebcbc57f1066b8b4c', 'name': 'Intersection', 'pluralName': 'Intersections', 'shortName': 'Intersection', 'icon': {'prefix': 'https://ss3.4sqi.net/img/categories_v2/travel/default_', 'suffix': '.png'}, 'primary': True}]"
124,5718bb01498e211268ef3cb3,名古屋市交通局 東海橋 バス停 ５番乗り場,35.11433,136.87764,"[{'id': '52f2ab2ebcbc57f1066b8b4f', 'name': 'Bus Stop', 'pluralName': 'Bus Stops', 'shortName': 'Bus Stop', 'icon': {'prefix': 'https://ss3.4sqi.net/img/categories_v2/travel/busstation_', 'suffix': '.png'}, 'primary': True}]"
126,567a573c498e7c71fe3e0535,玉川町(名古屋市営バス),35.120628520502486,136.87750727379625,"[{'id': '52f2ab2ebcbc57f1066b8b4f', 'name': 'Bus Stop', 'pluralName': 'Bus Stops', 'shortName': 'Bus Stop', 'icon': {'prefix': 'https://ss3.4sqi.net/img/categories_v2/travel/busstation_', 'suffix': '.png'}, 'primary': True}]"
126,541428b6498ec2142178418b,玉川町交差点,35.119443,136.877535,"[{'id': '52f2ab2ebcbc57f1066b8b4c', 'name': 'Intersection', 'pluralName': 'Intersections', 'shortName': 'Intersection', 'icon': {'prefix': 'https://ss3.4sqi.net/img/categories_v2/travel/default_', 'suffix': '.png'}, 'primary': True}]"
127,540b0508498ebedbd48512d8,十一番町交差点,35.124674,136.879733,"[{'id': '52f2ab2ebcbc57f1066b8b4c', 'name': 'Intersection', 'pluralName': 'Intersections', 'shortName': 'Intersection', 'icon': {'prefix': 'https://ss3.4sqi.net/img/categories_v2/travel/default_', 'suffix': '.png'}, 'primary': True}]"
127,54142bdd498e740c6557f805,昭和橋東交差点,35.125085609587856,136.87765878651567,"[{'id': '52f2ab2ebcbc57f1066b8b4c', 'name': 'Intersection', 'pluralName': 'Intersections', 'shortName': 'Intersection', 'icon': {'prefix': 'https://ss3.4sqi.net/img/categories_v2/travel/default_', 'suffix': '.png'}, 'primary': True}]"
127,4ebb6b990cd674ac772657cb,十一番町 バス停,35.124602,136.880021,"[{'id': '4bf58dd8d48988d1fe931735', 'name': 'Bus Station', 'pluralName': 'Bus Stations', 'shortName': 'Bus Station', 'icon': {'prefix': 'https://ss3.4sqi.net/img/categories_v2/travel/busstation_', 'suffix': '.png'}, 'primary': True}]"
128,5482d7d2498e1787e908ab5c,蜆橋東交差点,35.128425,136.877243,"[{'id': '52f2ab2ebcbc57f1066b8b4c', 'name': 'Intersection', 'pluralName': 'Intersections', 'shortName': 'Intersection', 'icon': {'prefix': 'https://ss3.4sqi.net/img/categories_v2/travel/default_', 'suffix': '.png'}, 'primary': True}]"
128,54d5f11e498ea948f61d4e47,外新町4交差点,35.128492,136.87969,"[{'id': '52f2ab2ebcbc57f1066b8b4c', 'name': 'Intersection', 'pluralName': 'Intersections', 'shortName': 'Intersection', 'icon': {'prefix': 'https://ss3.4sqi.net/img/categories_v2/travel/default_', 'suffix': '.png'}, 'primary': True}]"
128,5412f8c3498eaffcc8df6a21,中野橋東交差点,35.131522,136.87716,"[{'id': '52f2ab2ebcbc57f1066b8b4c', 'name': 'Intersection', 'pluralName': 'Intersections', 'shortName': 'Intersection', 'icon': {'prefix': 'https://ss3.4sqi.net/img/categories_v2/travel/default_', 'suffix': '.png'}, 'primary': True}]"
128,4ebb6c240cd674ac77266575,市バス 中野本町二丁目,35.131561800640945,136.88009977340698,"[{'id': '4bf58dd8d48988d1fe931735', 'name': 'Bus Station', 'pluralName': 'Bus Stations', 'shortName': 'Bus Station', 'icon': {'prefix': 'https://ss3.4sqi.net/img/categories_v2/travel/busstation_', 'suffix': '.png'}, 'primary': True}]"
129,5482d28e498e0381ba13d5b1,野立橋東交差点,35.134974,136.877063,"[{'id': '52f2ab2ebcbc57f1066b8b4c', 'name': 'Intersection', 'pluralName': 'Intersections', 'shortName': 'Intersection', 'icon': {'prefix': 'https://ss3.4sqi.net/img/categories_v2/travel/default_', 'suffix': '.png'}, 'primary': True}]"
130,567f9829498efd0cf2beae0d,清船町一丁目(名古屋市営バス),35.138662,136.875377,"[{'id': '52f2ab2ebcbc57f1066b8b4f', 'name': 'Bus Stop', 'pluralName': 'Bus Stops', 'shortName': 'Bus Stop', 'icon': {'prefix': 'https://ss3.4sqi.net/img/categories_v2/travel/busstation_', 'suffix': '.png'}, 'primary': True}]"
130,5412f92d498efefba0b2d906,清船町1交差点,35.13826,136.875349,"[{'id': '52f2ab2ebcbc57f1066b8b4c', 'name': 'Intersection', 'pluralName': 'Intersections', 'shortName': 'Intersection', 'icon': {'prefix': 'https://ss3.4sqi.net/img/categories_v2/travel/default_', 'suffix': '.png'}, 'primary': True}]"
130,5482d1e2498eb267503f3248,篠原橋東交差点,35.14075476953708,136.8768538803982,"[{'id': '52f2ab2ebcbc57f1066b8b4c', 'name': 'Intersection', 'pluralName': 'Intersections', 'shortName': 'Intersection', 'icon': {'prefix': 'https://ss3.4sqi.net/img/categories_v2/travel/default_', 'suffix': '.png'}, 'primary': True}]"
130,58d5dedc469aef7090487a02,八熊通6交差点,35.140865,136.879727,"[{'id': '52f2ab2ebcbc57f1066b8b4c', 'name': 'Intersection', 'pluralName': 'Intersections', 'shortName': 'Intersection', 'icon': {'prefix': 'https://ss3.4sqi.net/img/categories_v2/travel/default_', 'suffix': '.png'}, 'primary': True}]"
132,4fc9f7dce4b063c0294b3069,名古屋市交通局 二女子 バス停,35.14713193567711,136.87872559197785,"[{'id': '52f2ab2ebcbc57f1066b8b4f', 'name': 'Bus Stop', 'pluralName': 'Bus Stops', 'shortName': 'Bus Stop', 'icon': {'prefix': 'https://ss3.4sqi.net/img/categories_v2/travel/busstation_', 'suffix': '.png'}, 'primary': True}]"
132,4f9a007510813f974b327094,WILLER EXPRESS東海 名古屋営業所,35.14920309659728,136.88047605890145,"[{'id': '4bf58dd8d48988d1fe931735', 'name': 'Bus Station', 'pluralName': 'Bus Stations', 'shortName': 'Bus Station', 'icon': {'prefix': 'https://ss3.4sqi.net/img/categories_v2/travel/busstation_', 'suffix': '.png'}, 'primary': True}]"
133,567f961e498e729ea447a75d,小栗橋(名古屋市営バス),35.153151,136.879559,"[{'id': '52f2ab2ebcbc57f1066b8b4f', 'name': 'Bus Stop', 'pluralName': 'Bus Stops', 'shortName': 'Bus Stop', 'icon': {'prefix': 'https://ss3.4sqi.net/img/categories_v2/travel/busstation_', 'suffix': '.png'}, 'primary': True}]"
133,532518af498e1c305b811c1e,広川町四丁目(名古屋市営バス),35.150214,136.879434,"[{'id': '4bf58dd8d48988d1fe931735', 'name': 'Bus Station', 'pluralName': 'Bus Stations', 'shortName': 'Bus Station', 'icon': {'prefix': 'https://ss3.4sqi.net/img/categories_v2/travel/busstation_', 'suffix': '.png'}, 'primary': True}]"
134,52e76b09498e7f6635e46e86,運河通3交差点,35.157192158895135,136.87722980976105,"[{'id': '52f2ab2ebcbc57f1066b8b4c', 'name': 'Intersection', 'pluralName': 'Intersections', 'shortName': 'Intersection', 'icon': {'prefix': 'https://ss3.4sqi.net/img/categories_v2/travel/default_', 'suffix': '.png'}, 'primary': True}]"
134,523c12d311d2e4f7a3a4e2aa,運河通三丁目（名古屋市営バス）,35.156914442846215,136.87697698285618,"[{'id': '4bf58dd8d48988d1fe931735', 'name': 'Bus Station', 'pluralName': 'Bus Stations', 'shortName': 'Bus Station', 'icon': {'prefix': 'https://ss3.4sqi.net/img/categories_v2/travel/busstation_', 'suffix': '.png'}, 'primary': True}]"
134,4c35cbcbed37a5939a037103,名古屋高速 黄金出入口 (511/501),35.15840263508287,136.87697231769562,"[{'id': '52f2ab2ebcbc57f1066b8b4d', 'name': 'Toll Booth', 'pluralName': 'Toll Booths', 'shortName': 'Toll Booth', 'icon': {'prefix': 'https://ss3.4sqi.net/img/categories_v2/travel/default_', 'suffix': '.png'}, 'primary': True}]"
135,4c751c6f8d70b713a300d5ad,Komeno Station (E02) (米野駅),35.161349754111924,136.87976180095978,"[{'id': '4bf58dd8d48988d129951735', 'name': 'Train Station', 'pluralName': 'Train Stations', 'shortName': 'Train Station', 'icon': {'prefix': 'https://ss3.4sqi.net/img/categories_v2/travel/trainstation_', 'suffix': '.png'}, 'primary': True}]"
136,4e672199ae609d64bcc1dd84,牧野町 バス停 (名古屋市交通局),35.16468787363908,136.87781976927783,"[{'id': '52f2ab2ebcbc57f1066b8b4f', 'name': 'Bus Stop', 'pluralName': 'Bus Stops', 'shortName': 'Bus Stop', 'icon': {'prefix': 'https://ss3.4sqi.net/img/categories_v2/travel/busstation_', 'suffix': '.png'}, 'primary': True}]"
136,4e843c558b81aeeb0e82ab48,笈瀬通バス停 栄24栄行き乗り場,35.167028910008746,136.87850158430967,"[{'id': '4bf58dd8d48988d1fe931735', 'name': 'Bus Station', 'pluralName': 'Bus Stations', 'shortName': 'Bus Station', 'icon': {'prefix': 'https://ss3.4sqi.net/img/categories_v2/travel/busstation_', 'suffix': '.png'}, 'primary': True}]"
136,56bf34f8cd10dc6db8fccf3a,ビジネス太閤,35.165768,136.879228,"[{'id': '4bf58dd8d48988d1f8931735', 'name': 'Bed & Breakfast', 'pluralName': 'Bed & Breakfasts', 'shortName': 'B & B', 'icon': {'prefix': 'https://ss3.4sqi.net/img/categories_v2/travel/bedandbreakfast_', 'suffix': '.png'}, 'primary': True}]"
136,525817de11d2d0662e15c8e4,ビジネスホテル オイセ,35.16468029151639,136.8774129687102,"[{'id': '4bf58dd8d48988d1f8931735', 'name': 'Bed & Breakfast', 'pluralName': 'Bed & Breakfasts', 'shortName': 'B & B', 'icon': {'prefix': 'https://ss3.4sqi.net/img/categories_v2/travel/bedandbreakfast_', 'suffix': '.png'}, 'primary': True}]"
136,59886c6416ef6757607671d7,第3松竹梅ホテル,35.167317,136.877881,"[{'id': '4bf58dd8d48988d1fa931735', 'name': 'Hotel', 'pluralName': 'Hotels', 'shortName': 'Hotel', 'icon': {'prefix': 'https://ss3.4sqi.net/img/categories_v2/travel/hotel_', 'suffix': '.png'}, 'primary': True}]"
136,5b6858d8e96d0c002c89afe6,ホテルリブマックス名古屋太閤通口,35.167341,136.877161,"[{'id': '4bf58dd8d48988d1fa931735', 'name': 'Hotel', 'pluralName': 'Hotels', 'shortName': 'Hotel', 'icon': {'prefix': 'https://ss3.4sqi.net/img/categories_v2/travel/hotel_', 'suffix': '.png'}, 'primary': True}]"
136,4d1c7ac71356224bb39a0fbe,パレス名古屋,35.16391920970306,136.87894260454408,"[{'id': '4bf58dd8d48988d1f8931735', 'name': 'Bed & Breakfast', 'pluralName': 'Bed & Breakfasts', 'shortName': 'B & B', 'icon': {'prefix': 'https://ss3.4sqi.net/img/categories_v2/travel/bedandbreakfast_', 'suffix': '.png'}, 'primary': True}]"
136,50796dede4b08aa6be2e4c21,ニュー松竹梅ホテル,35.16748424737664,136.8783252401289,"[{'id': '4bf58dd8d48988d1f8931735', 'name': 'Bed & Breakfast', 'pluralName': 'Bed & Breakfasts', 'shortName': 'B & B', 'icon': {'prefix': 'https://ss3.4sqi.net/img/categories_v2/travel/bedandbreakfast_', 'suffix': '.png'}, 'primary': True}]"
136,5697ab46498ec00d4f698e5a,笈瀬通交差点,35.167458,136.87856,"[{'id': '52f2ab2ebcbc57f1066b8b4c', 'name': 'Intersection', 'pluralName': 'Intersections', 'shortName': 'Intersection', 'icon': {'prefix': 'https://ss3.4sqi.net/img/categories_v2/travel/default_', 'suffix': '.png'}, 'primary': True}]"
136,4e4bc88645dd51440170260a,名古屋フラワーホテルPART2,35.1676655811759,136.87877418370186,"[{'id': '4bf58dd8d48988d1f8931735', 'name': 'Bed & Breakfast', 'pluralName': 'Bed & Breakfasts', 'shortName': 'B & B', 'icon': {'prefix': 'https://ss3.4sqi.net/img/categories_v2/travel/bedandbreakfast_', 'suffix': '.png'}, 'primary': True}]"
136,4d74a2d4d0c7370410b6f217,笈瀬通バス停,35.16731179960784,136.87949627637863,"[{'id': '52f2ab2ebcbc57f1066b8b4f', 'name': 'Bus Stop', 'pluralName': 'Bus Stops', 'shortName': 'Bus Stop', 'icon': {'prefix': 'https://ss3.4sqi.net/img/categories_v2/travel/busstation_', 'suffix': '.png'}, 'primary': True}]"
136,5927aba72e26804f344b3d30,太閤3南交差点,35.163933,136.88031,"[{'id': '52f2ab2ebcbc57f1066b8b4c', 'name': 'Intersection', 'pluralName': 'Intersections', 'shortName': 'Intersection', 'icon': {'prefix': 'https://ss3.4sqi.net/img/categories_v2/travel/default_', 'suffix': '.png'}, 'primary': True}]"
136,4fb61d26e4b0aced0a7a797f,Toyota Rent a car (トヨタレンタリース愛知 名古屋新幹線口店),35.16817081028505,136.8787667370844,"[{'id': '4bf58dd8d48988d1ef941735', 'name': 'Rental Car Location', 'pluralName': 'Rental Car Locations', 'shortName': 'Rental Car', 'icon': {'prefix': 'https://ss3.4sqi.net/img/categories_v2/shops/airport_rentalcar_', 'suffix': '.png'}, 'primary': True}]"
137,5822e3ec556cad3df083ef3c,Meitetsu Inn Nagoyaeki Shinkansenguchi (名鉄イン名古屋駅新幹線口),35.17202394776777,136.87850504745336,"[{'id': '4bf58dd8d48988d1f8931735', 'name': 'Bed & Breakfast', 'pluralName': 'Bed & Breakfasts', 'shortName': 'B & B', 'icon': {'prefix': 'https://ss3.4sqi.net/img/categories_v2/travel/bedandbreakfast_', 'suffix': '.png'}, 'primary': True}]"
137,51e94c17498e357b9472d30c,Via Inn Nagoya Shinkansenguchi (ヴィアイン名古屋新幹線口),35.16845384395543,136.87841631999902,"[{'id': '4bf58dd8d48988d1f8931735', 'name': 'Bed & Breakfast', 'pluralName': 'Bed & Breakfasts', 'shortName': 'B & B', 'icon': {'prefix': 'https://ss3.4sqi.net/img/categories_v2/travel/bedandbreakfast_', 'suffix': '.png'}, 'primary': True}]"
137,59aa804c0868a23a1e974312,First Cabin (ファーストキャビン TKP名古屋駅),35.172714,136.87694,"[{'id': '4bf58dd8d48988d1f8931735', 'name': 'Bed & Breakfast', 'pluralName': 'Bed & Breakfasts', 'shortName': 'B & B', 'icon': {'prefix': 'https://ss3.4sqi.net/img/categories_v2/travel/bedandbreakfast_', 'suffix': '.png'}, 'primary': True}]"
137,55b0e69a498e2d3567867bf1,"Glocal Nagoya Hostel, Cafe & Bar (グローカル名古屋 ゲストハウス＆カフェバー)",35.17238124175407,136.87609478378303,"[{'id': '4bf58dd8d48988d1ee931735', 'name': 'Hostel', 'pluralName': 'Hostels', 'shortName': 'Hostel', 'icon': {'prefix': 'https://ss3.4sqi.net/img/categories_v2/travel/hostel_', 'suffix': '.png'}, 'primary': True}]"
137,4c12a065a9c220a10f56549d,TOYOKO INN Nagoya-eki Shinkansen-guchi (東横イン 名古屋駅新幹線口),35.16947821280903,136.8794220552862,"[{'id': '4bf58dd8d48988d1f8931735', 'name': 'Bed & Breakfast', 'pluralName': 'Bed & Breakfasts', 'shortName': 'B & B', 'icon': {'prefix': 'https://ss3.4sqi.net/img/categories_v2/travel/bedandbreakfast_', 'suffix': '.png'}, 'primary': True}]"
137,509b591fe4b0a738f46aba2f,Shinkansen Nagoya Station (東海道新幹線 名古屋駅),35.1703981358444,136.8810063865632,"[{'id': '4bf58dd8d48988d129951735', 'name': 'Train Station', 'pluralName': 'Train Stations', 'shortName': 'Train Station', 'icon': {'prefix': 'https://ss3.4sqi.net/img/categories_v2/travel/trainstation_', 'suffix': '.png'}, 'primary': True}]"
137,4bd2753bcaff9521ea01d3f0,Meitetsu New Grand Hotel (名鉄ニューグランドホテル),35.17001535955571,136.87970758137544,"[{'id': '4bf58dd8d48988d1fa931735', 'name': 'Hotel', 'pluralName': 'Hotels', 'shortName': 'Hotel', 'icon': {'prefix': 'https://ss3.4sqi.net/img/categories_v2/travel/hotel_', 'suffix': '.png'}, 'primary': True}]"
137,55faca0d498e205f7e936fdd,Wasabi Guesthouse (ゲストハウスわさび 名古屋駅前),35.168781903159626,136.8801817908999,"[{'id': '4bf58dd8d48988d1ee931735', 'name': 'Hostel', 'pluralName': 'Hostels', 'shortName': 'Hostel', 'icon': {'prefix': 'https://ss3.4sqi.net/img/categories_v2/travel/hostel_', 'suffix': '.png'}, 'primary': True}]"
137,4cb4767ec5e6a1cde548f3f6,ダイワロイネットホテル 名古屋新幹線口,35.17191401052653,136.87895715236664,"[{'id': '4bf58dd8d48988d1fa931735', 'name': 'Hotel', 'pluralName': 'Hotels', 'shortName': 'Hotel', 'icon': {'prefix': 'https://ss3.4sqi.net/img/categories_v2/travel/hotel_', 'suffix': '.png'}, 'primary': True}]"
137,4db7e22d93a04a7c3073f82c,ビジネスホテル サンライズ,35.17102758229525,136.87934216032332,"[{'id': '4bf58dd8d48988d1f8931735', 'name': 'Bed & Breakfast', 'pluralName': 'Bed & Breakfasts', 'shortName': 'B & B', 'icon': {'prefix': 'https://ss3.4sqi.net/img/categories_v2/travel/bedandbreakfast_', 'suffix': '.png'}, 'primary': True}]"
137,4b6fdc05f964a52029fe2ce3,名古屋サミットホテル,35.17040054495049,136.87901835503382,"[{'id': '4bf58dd8d48988d1f8931735', 'name': 'Bed & Breakfast', 'pluralName': 'Bed & Breakfasts', 'shortName': 'B & B', 'icon': {'prefix': 'https://ss3.4sqi.net/img/categories_v2/travel/bedandbreakfast_', 'suffix': '.png'}, 'primary': True}]"
137,4c138df3a5eb76b0a210c0b7,ビジネスホテル 第1スターナゴヤ,35.16914154382166,136.8795353329091,"[{'id': '4bf58dd8d48988d1f8931735', 'name': 'Bed & Breakfast', 'pluralName': 'Bed & Breakfasts', 'shortName': 'B & B', 'icon': {'prefix': 'https://ss3.4sqi.net/img/categories_v2/travel/bedandbreakfast_', 'suffix': '.png'}, 'primary': True}]"
137,4dbe1d644b222080d3b9c334,Hotel l'Ouest (ホテル ル ウエスト),35.17079224285605,136.8789370985657,"[{'id': '4bf58dd8d48988d1fa931735', 'name': 'Hotel', 'pluralName': 'Hotels', 'shortName': 'Hotel', 'icon': {'prefix': 'https://ss3.4sqi.net/img/categories_v2/travel/hotel_', 'suffix': '.png'}, 'primary': True}]"
137,56143842498e4ddc8e505a58,WILLER EXPRESS 名古屋駅太閤通口(ビックカメラ前)  バス停,35.170589101944195,136.87968057855602,"[{'id': '52f2ab2ebcbc57f1066b8b4f', 'name': 'Bus Stop', 'pluralName': 'Bus Stops', 'shortName': 'Bus Stop', 'icon': {'prefix': 'https://ss3.4sqi.net/img/categories_v2/travel/busstation_', 'suffix': '.png'}, 'primary': True}]"
137,5b617afec824ae002c7ab00e,ヴィアイン名古屋駅前椿町,35.169447705962284,136.87816634334982,"[{'id': '4bf58dd8d48988d1fa931735', 'name': 'Hotel', 'pluralName': 'Hotels', 'shortName': 'Hotel', 'icon': {'prefix': 'https://ss3.4sqi.net/img/categories_v2/travel/hotel_', 'suffix': '.png'}, 'primary': True}]"
137,4dd8582fc65bee535aca05f4,和風ホテル一冨久,35.168559502829105,136.87841635692757,"[{'id': '4bf58dd8d48988d1fa931735', 'name': 'Hotel', 'pluralName': 'Hotels', 'shortName': 'Hotel', 'icon': {'prefix': 'https://ss3.4sqi.net/img/categories_v2/travel/hotel_', 'suffix': '.png'}, 'primary': True}]"
137,5cc5349afe374000391a8bb9,R&Bホテル 名古屋新幹線口,35.171345,136.877574,"[{'id': '4bf58dd8d48988d1fa931735', 'name': 'Hotel', 'pluralName': 'Hotels', 'shortName': 'Hotel', 'icon': {'prefix': 'https://ss3.4sqi.net/img/categories_v2/travel/hotel_', 'suffix': '.png'}, 'primary': True}]"
137,4dbab6cc0437ffd207aa940d,New Star Nagoya (ニュースターナゴヤ),35.17136777915012,136.87843843969813,"[{'id': '4bf58dd8d48988d1f8931735', 'name': 'Bed & Breakfast', 'pluralName': 'Bed & Breakfasts', 'shortName': 'B & B', 'icon': {'prefix': 'https://ss3.4sqi.net/img/categories_v2/travel/bedandbreakfast_', 'suffix': '.png'}, 'primary': True}]"
137,4c1a1bab838020a1e2a8e661,SANCO INN NAGOYA Shinkansenguchi (三交イン名古屋新幹線口),35.16997329611365,136.87978613696998,"[{'id': '4bf58dd8d48988d1fa931735', 'name': 'Hotel', 'pluralName': 'Hotels', 'shortName': 'Hotel', 'icon': {'prefix': 'https://ss3.4sqi.net/img/categories_v2/travel/hotel_', 'suffix': '.png'}, 'primary': True}]"
137,4d38a59e9ca8236a9f20ade8,ホテル シャンブル,35.16933293659413,136.8791123847548,"[{'id': '4bf58dd8d48988d1fa931735', 'name': 'Hotel', 'pluralName': 'Hotels', 'shortName': 'Hotel', 'icon': {'prefix': 'https://ss3.4sqi.net/img/categories_v2/travel/hotel_', 'suffix': '.png'}, 'primary': True}]"
137,4cd653c5dfb4a1cda9b65e5c,ビジネスホテル 第3スターナゴヤ,35.168861208101255,136.8794526468198,"[{'id': '4bf58dd8d48988d1f8931735', 'name': 'Bed & Breakfast', 'pluralName': 'Bed & Breakfasts', 'shortName': 'B & B', 'icon': {'prefix': 'https://ss3.4sqi.net/img/categories_v2/travel/bedandbreakfast_', 'suffix': '.png'}, 'primary': True}]"
137,529b096d498e0d9931d1df80,大阪バス 名古屋駅停留所,35.170534909384955,136.87981814146042,"[{'id': '52f2ab2ebcbc57f1066b8b4f', 'name': 'Bus Stop', 'pluralName': 'Bus Stops', 'shortName': 'Bus Stop', 'icon': {'prefix': 'https://ss3.4sqi.net/img/categories_v2/travel/busstation_', 'suffix': '.png'}, 'primary': True}]"
137,5a28afae73fe254391a37829,三交イン 名古屋新幹線口 ANNEX,35.169649,136.879987,"[{'id': '4bf58dd8d48988d1f8931735', 'name': 'Bed & Breakfast', 'pluralName': 'Bed & Breakfasts', 'shortName': 'B & B', 'icon': {'prefix': 'https://ss3.4sqi.net/img/categories_v2/travel/bedandbreakfast_', 'suffix': '.png'}, 'primary': True}]"
137,4bd9496c2e6f0f47da2f0a08,JR名古屋駅 太閤通口,35.17024110646494,136.8806039052394,"[{'id': '4bf58dd8d48988d129951735', 'name': 'Train Station', 'pluralName': 'Train Stations', 'shortName': 'Train Station', 'icon': {'prefix': 'https://ss3.4sqi.net/img/categories_v2/travel/trainstation_', 'suffix': '.png'}, 'primary': True}]"
137,4e4fd8d762e14b77e3a170fc,ビジネスホテル 第2スターナゴヤ,35.168572775949166,136.87951378890557,"[{'id': '4bf58dd8d48988d1f8931735', 'name': 'Bed & Breakfast', 'pluralName': 'Bed & Breakfasts', 'shortName': 'B & B', 'icon': {'prefix': 'https://ss3.4sqi.net/img/categories_v2/travel/bedandbreakfast_', 'suffix': '.png'}, 'primary': True}]"
137,4d3ed9c844f5a093c15be1bb,nagoya liberty hotel (名古屋リバティホテル),35.16842364328897,136.87934895581338,"[{'id': '4bf58dd8d48988d1fa931735', 'name': 'Hotel', 'pluralName': 'Hotels', 'shortName': 'Hotel', 'icon': {'prefix': 'https://ss3.4sqi.net/img/categories_v2/travel/hotel_', 'suffix': '.png'}, 'primary': True}]"
137,58a62873a55db024333e2121,JRハイウェイバス名古屋駅1番乗り場,35.170986,136.879901,"[{'id': '52f2ab2ebcbc57f1066b8b4f', 'name': 'Bus Stop', 'pluralName': 'Bus Stops', 'shortName': 'Bus Stop', 'icon': {'prefix': 'https://ss3.4sqi.net/img/categories_v2/travel/busstation_', 'suffix': '.png'}, 'primary': True}]"
137,57ae88cf498e11260f3e9172,Nippon Rent-a-car (ニッポンレンタカー名古屋駅西口営業所),35.17208196095455,136.87810282043347,"[{'id': '4bf58dd8d48988d1ef941735', 'name': 'Rental Car Location', 'pluralName': 'Rental Car Locations', 'shortName': 'Rental Car', 'icon': {'prefix': 'https://ss3.4sqi.net/img/categories_v2/shops/airport_rentalcar_', 'suffix': '.png'}, 'primary': True}]"
137,51e64506498ee1747cc50fd1,WILLER EXPRESS 名古屋駅西口バス停,35.17203027090929,136.8784258266296,"[{'id': '4bf58dd8d48988d1fe931735', 'name': 'Bus Station', 'pluralName': 'Bus Stations', 'shortName': 'Bus Station', 'icon': {'prefix': 'https://ss3.4sqi.net/img/categories_v2/travel/busstation_', 'suffix': '.png'}, 'primary': True}]"
137,4f167358e4b0d3f8aa6d85c8,椿町北交差点,35.170209847123054,136.88028720392498,"[{'id': '52f2ab2ebcbc57f1066b8b4c', 'name': 'Intersection', 'pluralName': 'Intersections', 'shortName': 'Intersection', 'icon': {'prefix': 'https://ss3.4sqi.net/img/categories_v2/travel/default_', 'suffix': '.png'}, 'primary': True}]"
137,4b7d4c15f964a520fdb62fe3,ビジネスホテル カーム,35.168751548085105,136.87963822632622,"[{'id': '4bf58dd8d48988d1f8931735', 'name': 'Bed & Breakfast', 'pluralName': 'Bed & Breakfasts', 'shortName': 'B & B', 'icon': {'prefix': 'https://ss3.4sqi.net/img/categories_v2/travel/bedandbreakfast_', 'suffix': '.png'}, 'primary': True}]"
137,4e4873c9227128e1e8e67af2,太閤通口交差点,35.171523,136.879614,"[{'id': '52f2ab2ebcbc57f1066b8b4c', 'name': 'Intersection', 'pluralName': 'Intersections', 'shortName': 'Intersection', 'icon': {'prefix': 'https://ss3.4sqi.net/img/categories_v2/travel/default_', 'suffix': '.png'}, 'primary': True}]"
137,50153ca4e4b021abafd533bf,高速バスのりば  名古屋駅太閤通口,35.17082830507317,136.88020616213907,"[{'id': '4bf58dd8d48988d1fe931735', 'name': 'Bus Station', 'pluralName': 'Bus Stations', 'shortName': 'Bus Station', 'icon': {'prefix': 'https://ss3.4sqi.net/img/categories_v2/travel/busstation_', 'suffix': '.png'}, 'primary': True}]"
137,51fb7d5a498e23599f2c4f31,WILLER EXPRESS 名古屋駅(則武1丁目),35.17213889558499,136.8765887273094,"[{'id': '52f2ab2ebcbc57f1066b8b4f', 'name': 'Bus Stop', 'pluralName': 'Bus Stops', 'shortName': 'Bus Stop', 'icon': {'prefix': 'https://ss3.4sqi.net/img/categories_v2/travel/busstation_', 'suffix': '.png'}, 'primary': True}]"
137,5602b334498e6d95e1bdc85d,名古屋駅（新幹線口）バス停,35.1708440580978,136.88030362129211,"[{'id': '52f2ab2ebcbc57f1066b8b4f', 'name': 'Bus Stop', 'pluralName': 'Bus Stops', 'shortName': 'Bus Stop', 'icon': {'prefix': 'https://ss3.4sqi.net/img/categories_v2/travel/busstation_', 'suffix': '.png'}, 'primary': True}]"
137,59fc67509411f22d9605b17f,WILLERトラベル名古屋駅集合場所,35.170229,136.880527,"[{'id': '4bf58dd8d48988d1fe931735', 'name': 'Bus Station', 'pluralName': 'Bus Stations', 'shortName': 'Bus Station', 'icon': {'prefix': 'https://ss3.4sqi.net/img/categories_v2/travel/busstation_', 'suffix': '.png'}, 'primary': True}]"
137,4c4d20f0e906c9280052783b,JR Nagoya Bus Terminal (JR名古屋バスターミナル),35.17051229791993,136.8804900630715,"[{'id': '4bf58dd8d48988d1fe931735', 'name': 'Bus Station', 'pluralName': 'Bus Stations', 'shortName': 'Bus Station', 'icon': {'prefix': 'https://ss3.4sqi.net/img/categories_v2/travel/busstation_', 'suffix': '.png'}, 'primary': True}]"
137,5a681b4373fe252884a71a8c,新幹線のりば 北口,35.17006828007606,136.8806530828814,"[{'id': '4bf58dd8d48988d129951735', 'name': 'Train Station', 'pluralName': 'Train Stations', 'shortName': 'Train Station', 'icon': {'prefix': 'https://ss3.4sqi.net/img/categories_v2/travel/trainstation_', 'suffix': '.png'}, 'primary': True}]"
137,4ed33c41be7b9eece34ff43c,みどりの窓口 名古屋駅,35.17009563160744,136.880675938646,"[{'id': '4bf58dd8d48988d129951735', 'name': 'Train Station', 'pluralName': 'Train Stations', 'shortName': 'Train Station', 'icon': {'prefix': 'https://ss3.4sqi.net/img/categories_v2/travel/trainstation_', 'suffix': '.png'}, 'primary': True}]"
137,4cd10e5a2fd9b60c40e284eb,名古屋駅 JR全線きっぷうりば,35.170134778265904,136.88070988707955,"[{'id': '4bf58dd8d48988d129951735', 'name': 'Train Station', 'pluralName': 'Train Stations', 'shortName': 'Train Station', 'icon': {'prefix': 'https://ss3.4sqi.net/img/categories_v2/travel/trainstation_', 'suffix': '.png'}, 'primary': True}]"
137,5b6c0f37e96d0c002ccb2573,JRハイウェイバスきっぷうりば,35.170525,136.88065,"[{'id': '4bf58dd8d48988d1fe931735', 'name': 'Bus Station', 'pluralName': 'Bus Stations', 'shortName': 'Bus Station', 'icon': {'prefix': 'https://ss3.4sqi.net/img/categories_v2/travel/busstation_', 'suffix': '.png'}, 'primary': True}]"
137,59b5d77af00a705ba49f5792,トヨタレンタカー 名古屋駅太閤通口店,35.17203407651676,136.87950667959598,"[{'id': '4bf58dd8d48988d1ef941735', 'name': 'Rental Car Location', 'pluralName': 'Rental Car Locations', 'shortName': 'Rental Car', 'icon': {'prefix': 'https://ss3.4sqi.net/img/categories_v2/shops/airport_rentalcar_', 'suffix': '.png'}, 'primary': True}]"
137,56c5567ecd104c3e2e06aed1,Central-North Entrance (JR名古屋駅 中央北口改札),35.17015954565921,136.8807716844377,"[{'id': '4bf58dd8d48988d129951735', 'name': 'Train Station', 'pluralName': 'Train Stations', 'shortName': 'Train Station', 'icon': {'prefix': 'https://ss3.4sqi.net/img/categories_v2/travel/trainstation_', 'suffix': '.png'}, 'primary': True}]"
137,4e8e5b1661afe70d47a58047,JR Platforms 16-17 (JR 16-17番線ホーム),35.170643802626685,136.88068913631102,"[{'id': '4f4531504b9074f6e4fb0102', 'name': 'Platform', 'pluralName': 'Platforms', 'shortName': 'Platform', 'icon': {'prefix': 'https://ss3.4sqi.net/img/categories_v2/travel/trainstation_', 'suffix': '.png'}, 'primary': True}]"
137,4e65ef4c62e13e3bd01b6012,TOYOTA Rent a Car (トヨタレンタリース名古屋 名古屋駅太閤口店),35.17197780567364,136.8798674208721,"[{'id': '4bf58dd8d48988d1ef941735', 'name': 'Rental Car Location', 'pluralName': 'Rental Car Locations', 'shortName': 'Rental Car', 'icon': {'prefix': 'https://ss3.4sqi.net/img/categories_v2/shops/airport_rentalcar_', 'suffix': '.png'}, 'primary': True}]"
137,52270023498e33a57ecb4933,名古屋駅 太閤通口 タクシーのりば,35.1704797660121,136.88088327428858,"[{'id': '53fca564498e1a175f32528b', 'name': 'Taxi Stand', 'pluralName': 'Taxi Stands', 'shortName': 'Taxi Stand', 'icon': {'prefix': 'https://ss3.4sqi.net/img/categories_v2/travel/taxi_', 'suffix': '.png'}, 'primary': True}]"
137,5a23e1008c812a73c7e6ff5d,市バスターミナル,35.170055,136.880963,"[{'id': '4bf58dd8d48988d1fe931735', 'name': 'Bus Station', 'pluralName': 'Bus Stations', 'shortName': 'Bus Station', 'icon': {'prefix': 'https://ss3.4sqi.net/img/categories_v2/travel/busstation_', 'suffix': '.png'}, 'primary': True}]"
137,52480d1311d26c11d099dad4,名古屋駅 新幹線のりば 南口,35.170345,136.88095,"[{'id': '4bf58dd8d48988d129951735', 'name': 'Train Station', 'pluralName': 'Train Stations', 'shortName': 'Train Station', 'icon': {'prefix': 'https://ss3.4sqi.net/img/categories_v2/travel/trainstation_', 'suffix': '.png'}, 'primary': True}]"
137,5787ff48498e7e0fb2300e09,VIP LINER 名古屋駅バス停,35.168217,136.8802,"[{'id': '52f2ab2ebcbc57f1066b8b4f', 'name': 'Bus Stop', 'pluralName': 'Bus Stops', 'shortName': 'Bus Stop', 'icon': {'prefix': 'https://ss3.4sqi.net/img/categories_v2/travel/busstation_', 'suffix': '.png'}, 'primary': True}]"
137,56411199498e52bc13b6d260,名古屋駅  駅長事務室,35.169368320897824,136.88091168478687,"[{'id': '4bf58dd8d48988d129951735', 'name': 'Train Station', 'pluralName': 'Train Stations', 'shortName': 'Train Station', 'icon': {'prefix': 'https://ss3.4sqi.net/img/categories_v2/travel/trainstation_', 'suffix': '.png'}, 'primary': True}]"
137,4f38fdfae4b0d408a60625fe,エコホテル名古屋,35.168834735316295,136.8807107621921,"[{'id': '4bf58dd8d48988d1f8931735', 'name': 'Bed & Breakfast', 'pluralName': 'Bed & Breakfasts', 'shortName': 'B & B', 'icon': {'prefix': 'https://ss3.4sqi.net/img/categories_v2/travel/bedandbreakfast_', 'suffix': '.png'}, 'primary': True}]"
137,52c8800f498e6e508cdf4498,椿町交差点,35.16894986622429,136.88078364364947,"[{'id': '52f2ab2ebcbc57f1066b8b4c', 'name': 'Intersection', 'pluralName': 'Intersections', 'shortName': 'Intersection', 'icon': {'prefix': 'https://ss3.4sqi.net/img/categories_v2/travel/default_', 'suffix': '.png'}, 'primary': True}]"
137,52d15bdb11d2b5ffcebea558,名古屋駅 旧ツアーバス 高速乗合バスのりば,35.172364677792736,136.87976580735813,"[{'id': '4bf58dd8d48988d1fe931735', 'name': 'Bus Station', 'pluralName': 'Bus Stations', 'shortName': 'Bus Station', 'icon': {'prefix': 'https://ss3.4sqi.net/img/categories_v2/travel/busstation_', 'suffix': '.png'}, 'primary': True}]"
137,4b8bb438f964a520ada732e3,Shinkansen Platforms (新幹線ホーム),35.17053795613691,136.88120052575948,"[{'id': '4f4531504b9074f6e4fb0102', 'name': 'Platform', 'pluralName': 'Platforms', 'shortName': 'Platform', 'icon': {'prefix': 'https://ss3.4sqi.net/img/categories_v2/travel/trainstation_', 'suffix': '.png'}, 'primary': True}]"
137,4e75b5a6e4cd3254376f16e8,ミユキステーションホテル 名古屋,35.16887639770895,136.88048114741645,"[{'id': '4bf58dd8d48988d1f8931735', 'name': 'Bed & Breakfast', 'pluralName': 'Bed & Breakfasts', 'shortName': 'B & B', 'icon': {'prefix': 'https://ss3.4sqi.net/img/categories_v2/travel/bedandbreakfast_', 'suffix': '.png'}, 'primary': True}]"
137,4de4d9ea52b1d38d29a6371c,Chisun Inn Nagoya (チサンイン名古屋),35.17205278703909,136.87782593876926,"[{'id': '4bf58dd8d48988d1f8931735', 'name': 'Bed & Breakfast', 'pluralName': 'Bed & Breakfasts', 'shortName': 'B & B', 'icon': {'prefix': 'https://ss3.4sqi.net/img/categories_v2/travel/bedandbreakfast_', 'suffix': '.png'}, 'primary': True}]"
137,4b6b44eff964a52034fd2be3,DAIICHI FUJI HOTEL (第一富士ホテル),35.16888845756659,136.87950011792086,"[{'id': '4bf58dd8d48988d1fa931735', 'name': 'Hotel', 'pluralName': 'Hotels', 'shortName': 'Hotel', 'icon': {'prefix': 'https://ss3.4sqi.net/img/categories_v2/travel/hotel_', 'suffix': '.png'}, 'primary': True}]"
138,574d30c338fa4728d74b333f,Richmond Hotel Nagoya Shinkansenguchi (リッチモンドホテル 名古屋新幹線口),35.17422190857632,136.87914498811983,"[{'id': '4bf58dd8d48988d1fa931735', 'name': 'Hotel', 'pluralName': 'Hotels', 'shortName': 'Hotel', 'icon': {'prefix': 'https://ss3.4sqi.net/img/categories_v2/travel/hotel_', 'suffix': '.png'}, 'primary': True}]"
138,4ce2fc71438b224b65e07fa3,スーパーホテル名古屋駅前,35.174142651572076,136.87917970949513,"[{'id': '4bf58dd8d48988d1fa931735', 'name': 'Hotel', 'pluralName': 'Hotels', 'shortName': 'Hotel', 'icon': {'prefix': 'https://ss3.4sqi.net/img/categories_v2/travel/hotel_', 'suffix': '.png'}, 'primary': True}]"
138,5726ab10498e6edbc32a56f2,Jネットレンタカー 名古屋駅前,35.174309,136.879294,"[{'id': '4bf58dd8d48988d1ef941735', 'name': 'Rental Car Location', 'pluralName': 'Rental Car Locations', 'shortName': 'Rental Car', 'icon': {'prefix': 'https://ss3.4sqi.net/img/categories_v2/shops/airport_rentalcar_', 'suffix': '.png'}, 'primary': True}]"
